business_id,name,website,review_count,stars,latitude,longitude,address,city,state,postal_code,categories
9yc2V6zNpLG58uPV_ykBog,Boqueria West 40th St,https://www.yelp.com/biz/boqueria-west-40th-st-new-york?adjust_creative=mOvLaDpE4mdRLtHvvM6tbw&utm_campaign=yelp_api_v3&utm_medium=api_v3_business_search&utm_source=mOvLaDpE4mdRLtHvvM6tbw,418,4.0,40.75558,-73.99011999999999,"['260 W 40th St', 'New York, NY 10018']",New York,NY,10018,"[{'alias': 'tapasmallplates', 'title': 'Tapas/Small Plates'}, {'alias': 'spanish', 'title': 'Spanish'}, {'alias': 'tapas', 'title': 'Tapas Bars'}]"
rp8S7scxOkVVeG7dNneMGQ,L'Artusi,https://www.yelp.com/biz/l-artusi-new-york?adjust_creative=mOvLaDpE4mdRLtHvvM6tbw&utm_campaign=yelp_api_v3&utm_medium=api_v3_business_search&utm_source=mOvLaDpE4mdRLtHvvM6tbw,1854,4.5,40.73372,-74.00513000000001,"['228 W 10th St', 'New York, NY 10014']",New York,NY,10014,"[{'alias': 'italian', 'title': 'Italian'}, {'alias': 'cocktailbars', 'title': 'Cocktail Bars'}]"
cgiwHTmlUD-2em2MCvmzeA,Java Indonesian Restaurant,https://www.yelp.com/biz/java-indonesian-restaurant-brooklyn?adjust_creative=mOvLaDpE4mdRLtHvvM6tbw&utm_campaign=yelp_api_v3&utm_medium=api_v3_business_search&utm_source=mOvLaDpE4mdRLtHvvM6tbw,208,4.0,40.662645,-73.98477690000001,"['455 7th Ave', 'Brooklyn, NY 11215']",Brooklyn,NY,11215,"[{'alias': 'indonesian', 'title': 'Indonesian'}]"
nsAU6F2vmdnphmfIa_RuWg,Mable's Smokehouse & Banquet Hall,https://www.yelp.com/biz/mables-smokehouse-and-banquet-hall-brooklyn-6?adjust_creative=mOvLaDpE4mdRLtHvvM6tbw&utm_campaign=yelp_api_v3&utm_medium=api_v3_business_search&utm_source=mOvLaDpE4mdRLtHvvM6tbw,860,4.0,40.7211890204726,-73.9570004492998,"['44 Berry St', 'Brooklyn, NY 11249']",Brooklyn,NY,11249,"[{'alias': 'bbq', 'title': 'Barbeque'}, {'alias': 'bars', 'title': 'Bars'}, {'alias': 'tradamerican', 'title': 'American (Traditional)'}]"
GA5msU6NO9rQRctPfDJCBg,Peaches HotHouse,https://www.yelp.com/biz/peaches-hothouse-brooklyn?adjust_creative=mOvLaDpE4mdRLtHvvM6tbw&utm_campaign=yelp_api_v3&utm_medium=api_v3_business_search&utm_source=mOvLaDpE4mdRLtHvvM6tbw,1201,4.0,40.6833699737169,-73.9437798410654,"['415 Tompkins Ave', 'Brooklyn, NY 11216']",Brooklyn,NY,11216,"[{'alias': 'southern', 'title': 'Southern'}, {'alias': 'tradamerican', 'title': 'American (Traditional)'}, {'alias': 'bars', 'title': 'Bars'}]"
RrNe_0PReWHXAnjTEXBikQ,Luke's Lobster Brooklyn Bridge Park,https://www.yelp.com/biz/lukes-lobster-brooklyn-bridge-park-brooklyn-2?adjust_creative=mOvLaDpE4mdRLtHvvM6tbw&utm_campaign=yelp_api_v3&utm_medium=api_v3_business_search&utm_source=mOvLaDpE4mdRLtHvvM6tbw,340,4.0,40.703590000000005,-73.99410999999999,"['11 Water St', 'Brooklyn, NY 11201']",Brooklyn,NY,11201,"[{'alias': 'seafood', 'title': 'Seafood'}]"
WIhm0W9197f_rRtDziq5qQ,Lombardi's Pizza,https://www.yelp.com/biz/lombardis-pizza-new-york-4?adjust_creative=mOvLaDpE4mdRLtHvvM6tbw&utm_campaign=yelp_api_v3&utm_medium=api_v3_business_search&utm_source=mOvLaDpE4mdRLtHvvM6tbw,6121,4.0,40.721593496008296,-73.99559560445608,"['32 Spring St', 'New York, NY 10012']",New York,NY,10012,"[{'alias': 'pizza', 'title': 'Pizza'}]"
nI1UYDCYUTt23TpGxqnLKg,Buddakan,https://www.yelp.com/biz/buddakan-new-york?adjust_creative=mOvLaDpE4mdRLtHvvM6tbw&utm_campaign=yelp_api_v3&utm_medium=api_v3_business_search&utm_source=mOvLaDpE4mdRLtHvvM6tbw,4001,4.0,40.7422762672197,-74.0048000961542,"['75 9th Ave', 'New York, NY 10011']",New York,NY,10011,"[{'alias': 'chinese', 'title': 'Chinese'}, {'alias': 'bars', 'title': 'Bars'}, {'alias': 'asianfusion', 'title': 'Asian Fusion'}]"
dhKZRnt3DwfSu48OdPDdvA,Pasta Louise,https://www.yelp.com/biz/pasta-louise-brooklyn?adjust_creative=mOvLaDpE4mdRLtHvvM6tbw&utm_campaign=yelp_api_v3&utm_medium=api_v3_business_search&utm_source=mOvLaDpE4mdRLtHvvM6tbw,36,5.0,40.666090999999994,-73.9787254,"['803 8th Ave', 'Brooklyn, NY 11215']",Brooklyn,NY,11215,"[{'alias': 'italian', 'title': 'Italian'}, {'alias': 'pastashops', 'title': 'Pasta Shops'}, {'alias': 'sandwiches', 'title': 'Sandwiches'}]"
TTGFxOebpxfLVVFqfZemKA,Boka,https://www.yelp.com/biz/boka-new-york-2?adjust_creative=mOvLaDpE4mdRLtHvvM6tbw&utm_campaign=yelp_api_v3&utm_medium=api_v3_business_search&utm_source=mOvLaDpE4mdRLtHvvM6tbw,32,4.5,40.714809,-73.998272,"['23 Pell St', 'New York, NY 10013']",New York,NY,10013,"[{'alias': 'korean', 'title': 'Korean'}, {'alias': 'bbq', 'title': 'Barbeque'}, {'alias': 'seafood', 'title': 'Seafood'}]"
A0saPXtRGKl-SVJGQyQAOw,Brooklyn Chop House,https://www.yelp.com/biz/brooklyn-chop-house-new-york-3?adjust_creative=mOvLaDpE4mdRLtHvvM6tbw&utm_campaign=yelp_api_v3&utm_medium=api_v3_business_search&utm_source=mOvLaDpE4mdRLtHvvM6tbw,504,4.0,40.711509899999996,-74.00596999999999,"['150 Nassau St', 'New York, NY 10038']",New York,NY,10038,"[{'alias': 'dimsum', 'title': 'Dim Sum'}, {'alias': 'steak', 'title': 'Steakhouses'}, {'alias': 'asianfusion', 'title': 'Asian Fusion'}]"
56qlj1cYlqNzmG0xllGg-w,Westville Dumbo,https://www.yelp.com/biz/westville-dumbo-brooklyn?adjust_creative=mOvLaDpE4mdRLtHvvM6tbw&utm_campaign=yelp_api_v3&utm_medium=api_v3_business_search&utm_source=mOvLaDpE4mdRLtHvvM6tbw,305,4.0,40.701796934008605,-73.9896315336227,"['81 Washington St', 'Brooklyn, NY 11201']",Brooklyn,NY,11201,"[{'alias': 'newamerican', 'title': 'American (New)'}, {'alias': 'comfortfood', 'title': 'Comfort Food'}]"
L7_siqDfU4-ZA17YtA-SBg,Silver Factory,https://www.yelp.com/biz/silver-factory-brooklyn?adjust_creative=mOvLaDpE4mdRLtHvvM6tbw&utm_campaign=yelp_api_v3&utm_medium=api_v3_business_search&utm_source=mOvLaDpE4mdRLtHvvM6tbw,200,4.5,40.709227,-73.958598,"['270 South 5th St', 'Brooklyn, NY 11211']",Brooklyn,NY,11211,"[{'alias': 'korean', 'title': 'Korean'}, {'alias': 'bars', 'title': 'Bars'}]"
4aF0F8w7yXX9o5_QFky_ig,Celestine,https://www.yelp.com/biz/celestine-brooklyn?adjust_creative=mOvLaDpE4mdRLtHvvM6tbw&utm_campaign=yelp_api_v3&utm_medium=api_v3_business_search&utm_source=mOvLaDpE4mdRLtHvvM6tbw,224,4.0,40.704676,-73.987975,"['1 John St', 'Brooklyn, NY 11201']",Brooklyn,NY,11201,"[{'alias': 'mediterranean', 'title': 'Mediterranean'}, {'alias': 'bars', 'title': 'Bars'}]"
ONQRhDuWv0e9R5xOiI7YAA,Gyu-Kaku Japanese BBQ,https://www.yelp.com/biz/gyu-kaku-japanese-bbq-new-york-3?adjust_creative=mOvLaDpE4mdRLtHvvM6tbw&utm_campaign=yelp_api_v3&utm_medium=api_v3_business_search&utm_source=mOvLaDpE4mdRLtHvvM6tbw,1238,4.0,40.75908,-73.98989,"['321 W 44th St', 'Unit 103', 'New York, NY 10036']",New York,NY,10036,"[{'alias': 'japanese', 'title': 'Japanese'}, {'alias': 'bbq', 'title': 'Barbeque'}, {'alias': 'asianfusion', 'title': 'Asian Fusion'}]"
ur679FKjXosJ1VnddICDiw,Don Wagyu,https://www.yelp.com/biz/don-wagyu-new-york?adjust_creative=mOvLaDpE4mdRLtHvvM6tbw&utm_campaign=yelp_api_v3&utm_medium=api_v3_business_search&utm_source=mOvLaDpE4mdRLtHvvM6tbw,52,4.0,40.76234,-73.996759,"['600 11th Ave', 'Gotham West Market', 'New York, NY 10036']",New York,NY,10036,"[{'alias': 'japanese', 'title': 'Japanese'}]"
k5bGHJbAXDw9g_uP42QqDw,The Highwater,https://www.yelp.com/biz/the-highwater-astoria?adjust_creative=mOvLaDpE4mdRLtHvvM6tbw&utm_campaign=yelp_api_v3&utm_medium=api_v3_business_search&utm_source=mOvLaDpE4mdRLtHvvM6tbw,384,4.0,40.760329999999996,-73.92245,"['3420 Broadway', 'Astoria, NY 11106']",Astoria,NY,11106,"[{'alias': 'newamerican', 'title': 'American (New)'}, {'alias': 'hawaiian', 'title': 'Hawaiian'}, {'alias': 'tikibars', 'title': 'Tiki Bars'}]"
DoSU8IPq-Py_YV3kYmXPfQ,Trattoria Trecolori,https://www.yelp.com/biz/trattoria-trecolori-new-york?adjust_creative=mOvLaDpE4mdRLtHvvM6tbw&utm_campaign=yelp_api_v3&utm_medium=api_v3_business_search&utm_source=mOvLaDpE4mdRLtHvvM6tbw,2348,4.0,40.75998,-73.98671,"['254 West 47th St', 'New York, NY 10036']",New York,NY,10036,"[{'alias': 'italian', 'title': 'Italian'}]"
BKMCAYb9EAivUm3p-vrC9w,Khe-Yo,https://www.yelp.com/biz/khe-yo-new-york?adjust_creative=mOvLaDpE4mdRLtHvvM6tbw&utm_campaign=yelp_api_v3&utm_medium=api_v3_business_search&utm_source=mOvLaDpE4mdRLtHvvM6tbw,773,4.0,40.716906,-74.008587,"['157 Duane St', 'New York, NY 10013']",New York,NY,10013,"[{'alias': 'laotian', 'title': 'Laotian'}]"
4UxmxAqehEIh7fYrzUEA7A,Tacovision,https://www.yelp.com/biz/tacovision-new-york?adjust_creative=mOvLaDpE4mdRLtHvvM6tbw&utm_campaign=yelp_api_v3&utm_medium=api_v3_business_search&utm_source=mOvLaDpE4mdRLtHvvM6tbw,100,4.5,40.756820031115296,-73.9678929001093,"['244 E 53rd St', 'New York, NY 10004']",New York,NY,10004,"[{'alias': 'tacos', 'title': 'Tacos'}, {'alias': 'tapasmallplates', 'title': 'Tapas/Small Plates'}]"
BBPiBgyMmLX5RzaKCB0AeQ,Llama Inn,https://www.yelp.com/biz/llama-inn-brooklyn?adjust_creative=mOvLaDpE4mdRLtHvvM6tbw&utm_campaign=yelp_api_v3&utm_medium=api_v3_business_search&utm_source=mOvLaDpE4mdRLtHvvM6tbw,499,4.0,40.71672,-73.95051,"['50 Withers St', 'Brooklyn, NY 11211']",Brooklyn,NY,11211,"[{'alias': 'peruvian', 'title': 'Peruvian'}, {'alias': 'bars', 'title': 'Bars'}]"
fNRRmvVKTbEBSaAOcA-3bA,Parkside,https://www.yelp.com/biz/parkside-brooklyn?adjust_creative=mOvLaDpE4mdRLtHvvM6tbw&utm_campaign=yelp_api_v3&utm_medium=api_v3_business_search&utm_source=mOvLaDpE4mdRLtHvvM6tbw,185,4.0,40.655949,-73.959599,"['705 Flatbush Ave', 'Brooklyn, NY 11225']",Brooklyn,NY,11225,"[{'alias': 'pizza', 'title': 'Pizza'}, {'alias': 'cocktailbars', 'title': 'Cocktail Bars'}, {'alias': 'jazzandblues', 'title': 'Jazz & Blues'}]"
utM-5navObsVA5sCRHobzA,Madre,https://www.yelp.com/biz/madre-brooklyn-2?adjust_creative=mOvLaDpE4mdRLtHvvM6tbw&utm_campaign=yelp_api_v3&utm_medium=api_v3_business_search&utm_source=mOvLaDpE4mdRLtHvvM6tbw,64,5.0,40.733109999999996,-73.95798,"['214 Franklin St', 'Brooklyn, NY 11222']",Brooklyn,NY,11222,"[{'alias': 'newamerican', 'title': 'American (New)'}]"
NKDLr_aBy5WRX8-JR_SGyQ,Calaca,https://www.yelp.com/biz/calaca-brooklyn?adjust_creative=mOvLaDpE4mdRLtHvvM6tbw&utm_campaign=yelp_api_v3&utm_medium=api_v3_business_search&utm_source=mOvLaDpE4mdRLtHvvM6tbw,184,4.5,40.6834,-73.95655,"['139 Putnam Ave', 'Brooklyn, NY 11238']",Brooklyn,NY,11238,"[{'alias': 'mexican', 'title': 'Mexican'}]"
2N0rmZr3YVSa_sZYTJHxIA,Imani Caribbean Kitchen & Bar,https://www.yelp.com/biz/imani-caribbean-kitchen-and-bar-brooklyn-2?adjust_creative=mOvLaDpE4mdRLtHvvM6tbw&utm_campaign=yelp_api_v3&utm_medium=api_v3_business_search&utm_source=mOvLaDpE4mdRLtHvvM6tbw,526,4.0,40.6894,-73.97094,"['271 Adelphi St', 'Brooklyn, NY 11205']",Brooklyn,NY,11205,"[{'alias': 'caribbean', 'title': 'Caribbean'}, {'alias': 'newamerican', 'title': 'American (New)'}]"
0FaLilJs2VN83hOEBcBnPg,Au Za'atar,https://www.yelp.com/biz/au-zaatar-new-york?adjust_creative=mOvLaDpE4mdRLtHvvM6tbw&utm_campaign=yelp_api_v3&utm_medium=api_v3_business_search&utm_source=mOvLaDpE4mdRLtHvvM6tbw,937,4.0,40.728901,-73.981185,"['188 Avenue A', 'New York, NY 10009']",New York,NY,10009,"[{'alias': 'wine_bars', 'title': 'Wine Bars'}, {'alias': 'lebanese', 'title': 'Lebanese'}, {'alias': 'mediterranean', 'title': 'Mediterranean'}]"
4axlhxyN2bKuRWfnY2IhuQ,Tabaré,https://www.yelp.com/biz/tabar%C3%A9-brooklyn-2?adjust_creative=mOvLaDpE4mdRLtHvvM6tbw&utm_campaign=yelp_api_v3&utm_medium=api_v3_business_search&utm_source=mOvLaDpE4mdRLtHvvM6tbw,645,4.0,40.713046000000006,-73.958968,"['221 S 1st St', 'Brooklyn, NY 11211']",Brooklyn,NY,11211,"[{'alias': 'latin', 'title': 'Latin American'}]"
oe8GEFE4QLFAKt87y7zcgA,Very Fresh Noodles,https://www.yelp.com/biz/very-fresh-noodles-new-york?adjust_creative=mOvLaDpE4mdRLtHvvM6tbw&utm_campaign=yelp_api_v3&utm_medium=api_v3_business_search&utm_source=mOvLaDpE4mdRLtHvvM6tbw,1011,4.5,40.74207,-74.00565,"['409 W 15th St', 'New York, NY 10011']",New York,NY,10011,"[{'alias': 'taiwanese', 'title': 'Taiwanese'}, {'alias': 'chinese', 'title': 'Chinese'}, {'alias': 'noodles', 'title': 'Noodles'}]"
OCTiJwvjoK81WoDwsTkFvA,Paesano of Mulberry Street,https://www.yelp.com/biz/paesano-of-mulberry-street-new-york?adjust_creative=mOvLaDpE4mdRLtHvvM6tbw&utm_campaign=yelp_api_v3&utm_medium=api_v3_business_search&utm_source=mOvLaDpE4mdRLtHvvM6tbw,953,4.0,40.718554,-73.997447,"['136 Mulberry St', 'New York, NY 10013']",New York,NY,10013,"[{'alias': 'italian', 'title': 'Italian'}, {'alias': 'salad', 'title': 'Salad'}, {'alias': 'seafood', 'title': 'Seafood'}]"
TO9IICJjvcg1QhLVnap9fA,Cent'Anni,https://www.yelp.com/biz/centanni-brooklyn?adjust_creative=mOvLaDpE4mdRLtHvvM6tbw&utm_campaign=yelp_api_v3&utm_medium=api_v3_business_search&utm_source=mOvLaDpE4mdRLtHvvM6tbw,435,3.5,40.6730907423467,-73.9573492245369,"['742 Franklin Ave', 'Brooklyn, NY 11238']",Brooklyn,NY,11238,"[{'alias': 'italian', 'title': 'Italian'}]"
jjDsVuD7KbxnYV4jFnyftA,LOVE Korean BBQ,https://www.yelp.com/biz/love-korean-bbq-new-york?adjust_creative=mOvLaDpE4mdRLtHvvM6tbw&utm_campaign=yelp_api_v3&utm_medium=api_v3_business_search&utm_source=mOvLaDpE4mdRLtHvvM6tbw,98,4.5,40.747118,-73.985056,"['319 5th Ave', 'New York, NY 10016']",New York,NY,10016,"[{'alias': 'korean', 'title': 'Korean'}, {'alias': 'bbq', 'title': 'Barbeque'}]"
iexl39DYyy_76Xq3ExaJkQ,Excuse My French,https://www.yelp.com/biz/excuse-my-french-new-york?adjust_creative=mOvLaDpE4mdRLtHvvM6tbw&utm_campaign=yelp_api_v3&utm_medium=api_v3_business_search&utm_source=mOvLaDpE4mdRLtHvvM6tbw,290,4.5,40.71844,-73.98980999999999,"['96 Orchard St', 'New York, NY 10002']",New York,NY,10002,"[{'alias': 'bars', 'title': 'Bars'}, {'alias': 'tapas', 'title': 'Tapas Bars'}, {'alias': 'french', 'title': 'French'}]"
Z3yjBSmuoQbz6olnO_S1tQ,Cheeseboat,https://www.yelp.com/biz/cheeseboat-brooklyn?adjust_creative=mOvLaDpE4mdRLtHvvM6tbw&utm_campaign=yelp_api_v3&utm_medium=api_v3_business_search&utm_source=mOvLaDpE4mdRLtHvvM6tbw,412,4.0,40.71994,-73.95791,"['80 Berry St', 'Brooklyn, NY 11249']",Brooklyn,NY,11249,"[{'alias': 'georgian', 'title': 'Georgian'}]"
TU_BU9HLflYI2xlyqVQdRA,TAO Uptown,https://www.yelp.com/biz/tao-uptown-new-york-2?adjust_creative=mOvLaDpE4mdRLtHvvM6tbw&utm_campaign=yelp_api_v3&utm_medium=api_v3_business_search&utm_source=mOvLaDpE4mdRLtHvvM6tbw,2602,3.5,40.76269,-73.97147,"['42 E 58th St', 'New York, NY 10022']",New York,NY,10022,"[{'alias': 'asianfusion', 'title': 'Asian Fusion'}]"
O1fUmxt3kbV-rnyjBtzAfw,THEP Thai Restaurant,https://www.yelp.com/biz/thep-thai-restaurant-new-york-5?adjust_creative=mOvLaDpE4mdRLtHvvM6tbw&utm_campaign=yelp_api_v3&utm_medium=api_v3_business_search&utm_source=mOvLaDpE4mdRLtHvvM6tbw,1220,4.5,40.77078,-73.95727,"['1439 2nd Ave', 'New York, NY 10021']",New York,NY,10021,"[{'alias': 'thai', 'title': 'Thai'}, {'alias': 'noodles', 'title': 'Noodles'}, {'alias': 'asianfusion', 'title': 'Asian Fusion'}]"
rrL05CECQO4sQXCc5BF90g,Mercado Little Spain,https://www.yelp.com/biz/mercado-little-spain-new-york?adjust_creative=mOvLaDpE4mdRLtHvvM6tbw&utm_campaign=yelp_api_v3&utm_medium=api_v3_business_search&utm_source=mOvLaDpE4mdRLtHvvM6tbw,360,3.5,40.752435,-74.001475,"['10 Hudson Yards', 'New York, NY 10001']",New York,NY,10001,"[{'alias': 'spanish', 'title': 'Spanish'}]"
pfmAcS-g6SiNG0KlLvrqnA,Beauty & Essex,https://www.yelp.com/biz/beauty-and-essex-new-york-2?adjust_creative=mOvLaDpE4mdRLtHvvM6tbw&utm_campaign=yelp_api_v3&utm_medium=api_v3_business_search&utm_source=mOvLaDpE4mdRLtHvvM6tbw,3504,4.0,40.72037,-73.98676999999999,"['146 Essex St', 'New York, NY 10002']",New York,NY,10002,"[{'alias': 'newamerican', 'title': 'American (New)'}]"
5Fz1WlY3lxy8gJFs8s_1Dw,The Binc,https://www.yelp.com/biz/the-binc-brooklyn?adjust_creative=mOvLaDpE4mdRLtHvvM6tbw&utm_campaign=yelp_api_v3&utm_medium=api_v3_business_search&utm_source=mOvLaDpE4mdRLtHvvM6tbw,71,4.5,40.699268200000006,-73.9923109,"['60 Henry St', 'Brooklyn, NY 11201']",Brooklyn,NY,11201,"[{'alias': 'cocktailbars', 'title': 'Cocktail Bars'}, {'alias': 'tapasmallplates', 'title': 'Tapas/Small Plates'}]"
iSjPBJRiWqrgxW7ZM3CGig,Birds of a Feather,https://www.yelp.com/biz/birds-of-a-feather-brooklyn?adjust_creative=mOvLaDpE4mdRLtHvvM6tbw&utm_campaign=yelp_api_v3&utm_medium=api_v3_business_search&utm_source=mOvLaDpE4mdRLtHvvM6tbw,362,4.0,40.714420000000004,-73.960441,"['191 Grand St', 'Brooklyn, NY 11211']",Brooklyn,NY,11211,"[{'alias': 'szechuan', 'title': 'Szechuan'}]"
bVkjBJlAIwKAj9Aw1KVWjA,Dim Sum Palace,https://www.yelp.com/biz/dim-sum-palace-new-york-8?adjust_creative=mOvLaDpE4mdRLtHvvM6tbw&utm_campaign=yelp_api_v3&utm_medium=api_v3_business_search&utm_source=mOvLaDpE4mdRLtHvvM6tbw,1273,4.0,40.76015,-73.9893699,"['334 W 46th St', 'New York, NY 10036']",New York,NY,10036,"[{'alias': 'dimsum', 'title': 'Dim Sum'}, {'alias': 'cantonese', 'title': 'Cantonese'}]"
FcHVRbMcYY-D1Glzwo3ofA,MR BAO,https://www.yelp.com/biz/mr-bao-brooklyn?adjust_creative=mOvLaDpE4mdRLtHvvM6tbw&utm_campaign=yelp_api_v3&utm_medium=api_v3_business_search&utm_source=mOvLaDpE4mdRLtHvvM6tbw,49,5.0,40.67719,-73.97981,"['179 5th Ave', 'Brooklyn, NY 11217']",Brooklyn,NY,11217,"[{'alias': 'shanghainese', 'title': 'Shanghainese'}, {'alias': 'asianfusion', 'title': 'Asian Fusion'}]"
0Tvwk0hvgaY0QVIsZGTZKQ,Antica Ristorante,https://www.yelp.com/biz/antica-ristorante-new-york?adjust_creative=mOvLaDpE4mdRLtHvvM6tbw&utm_campaign=yelp_api_v3&utm_medium=api_v3_business_search&utm_source=mOvLaDpE4mdRLtHvvM6tbw,502,4.5,40.703935514533796,-74.0121731758117,"['8 Stone St', 'New York, NY 10004']",New York,NY,10004,"[{'alias': 'italian', 'title': 'Italian'}]"
FlZ1zdVEKWv7dwqm8Uw8-w,Raku,https://www.yelp.com/biz/raku-new-york-7?adjust_creative=mOvLaDpE4mdRLtHvvM6tbw&utm_campaign=yelp_api_v3&utm_medium=api_v3_business_search&utm_source=mOvLaDpE4mdRLtHvvM6tbw,1090,4.5,40.7264988089246,-73.98665260523559,"['342 E 6th St', 'New York, NY 10003']",New York,NY,10003,"[{'alias': 'japanese', 'title': 'Japanese'}, {'alias': 'noodles', 'title': 'Noodles'}]"
B55Ocx5RBWxo6AGSucYSIA,ilili,https://www.yelp.com/biz/ilili-new-york-2?adjust_creative=mOvLaDpE4mdRLtHvvM6tbw&utm_campaign=yelp_api_v3&utm_medium=api_v3_business_search&utm_source=mOvLaDpE4mdRLtHvvM6tbw,2408,4.0,40.74435,-73.98778,"['236 5th Ave', 'New York, NY 10001']",New York,NY,10001,"[{'alias': 'mediterranean', 'title': 'Mediterranean'}, {'alias': 'lebanese', 'title': 'Lebanese'}, {'alias': 'cocktailbars', 'title': 'Cocktail Bars'}]"
m2Zsy2UAkcDf0cRzk2Yoqw,Madame Vo,https://www.yelp.com/biz/madame-vo-new-york?adjust_creative=mOvLaDpE4mdRLtHvvM6tbw&utm_campaign=yelp_api_v3&utm_medium=api_v3_business_search&utm_source=mOvLaDpE4mdRLtHvvM6tbw,811,4.0,40.72925,-73.98612,"['212 E 10th St', 'New York, NY 10003']",New York,NY,10003,"[{'alias': 'vietnamese', 'title': 'Vietnamese'}]"
MTP9i2rqkZf1Tn8-ARTPNA,Guevara's,https://www.yelp.com/biz/guevaras-brooklyn?adjust_creative=mOvLaDpE4mdRLtHvvM6tbw&utm_campaign=yelp_api_v3&utm_medium=api_v3_business_search&utm_source=mOvLaDpE4mdRLtHvvM6tbw,22,5.0,40.688019,-73.96288100000001,"['39 Clifton Pl', 'Brooklyn, NY 11238']",Brooklyn,NY,11238,"[{'alias': 'vegan', 'title': 'Vegan'}]"
xq0cX_DgxiJMXwhmEl9kUA,Café China,https://www.yelp.com/biz/caf%C3%A9-china-new-york-2?adjust_creative=mOvLaDpE4mdRLtHvvM6tbw&utm_campaign=yelp_api_v3&utm_medium=api_v3_business_search&utm_source=mOvLaDpE4mdRLtHvvM6tbw,1642,4.0,40.7499225208569,-73.98194641271971,"['13 E 37th St', 'New York, NY 10016']",New York,NY,10016,"[{'alias': 'szechuan', 'title': 'Szechuan'}]"
CFR-HzVHKWRMpMAR3LAhzg,Montesacro Pinseria Brooklyn,https://www.yelp.com/biz/montesacro-pinseria-brooklyn-brooklyn?adjust_creative=mOvLaDpE4mdRLtHvvM6tbw&utm_campaign=yelp_api_v3&utm_medium=api_v3_business_search&utm_source=mOvLaDpE4mdRLtHvvM6tbw,83,4.5,40.71338,-73.95136,"['432 Union Ave', 'Brooklyn, NY 11211']",Brooklyn,NY,11211,"[{'alias': 'italian', 'title': 'Italian'}, {'alias': 'pizza', 'title': 'Pizza'}, {'alias': 'bars', 'title': 'Bars'}]"
4XX-zF8h5Lvrr22_tqU6-Q,The River Café,https://www.yelp.com/biz/the-river-caf%C3%A9-brooklyn-3?adjust_creative=mOvLaDpE4mdRLtHvvM6tbw&utm_campaign=yelp_api_v3&utm_medium=api_v3_business_search&utm_source=mOvLaDpE4mdRLtHvvM6tbw,1130,4.0,40.703179999999996,-73.99464990000001,"['1 Water St', 'Brooklyn, NY 11201']",Brooklyn,NY,11201,"[{'alias': 'newamerican', 'title': 'American (New)'}, {'alias': 'wine_bars', 'title': 'Wine Bars'}, {'alias': 'venues', 'title': 'Venues & Event Spaces'}]"
hO1T1fG5f5FbvOP2124rpw,Negril BK,https://www.yelp.com/biz/negril-bk-brooklyn?adjust_creative=mOvLaDpE4mdRLtHvvM6tbw&utm_campaign=yelp_api_v3&utm_medium=api_v3_business_search&utm_source=mOvLaDpE4mdRLtHvvM6tbw,618,4.0,40.67501,-73.98163000000001,"['256 5th Ave', 'Brooklyn, NY 11215']",Brooklyn,NY,11215,"[{'alias': 'caribbean', 'title': 'Caribbean'}, {'alias': 'cocktailbars', 'title': 'Cocktail Bars'}]"
VvsZAnEwU4c8Xkyrzx05Nw,Anytime,https://www.yelp.com/biz/anytime-new-york?adjust_creative=mOvLaDpE4mdRLtHvvM6tbw&utm_campaign=yelp_api_v3&utm_medium=api_v3_business_search&utm_source=mOvLaDpE4mdRLtHvvM6tbw,1417,4.5,40.74779,-73.98674,"['23 W 32nd St', 'Fl 3', 'New York, NY 10001']",New York,NY,10001,"[{'alias': 'korean', 'title': 'Korean'}, {'alias': 'newamerican', 'title': 'American (New)'}, {'alias': 'tapasmallplates', 'title': 'Tapas/Small Plates'}]"
Rj2ACaJcbroJLPDhRhzvBw,Shuka,https://www.yelp.com/biz/shuka-new-york-3?adjust_creative=mOvLaDpE4mdRLtHvvM6tbw&utm_campaign=yelp_api_v3&utm_medium=api_v3_business_search&utm_source=mOvLaDpE4mdRLtHvvM6tbw,493,4.0,40.72707,-74.00283,"['38 MacDougal St', 'New York, NY 10012']",New York,NY,10012,"[{'alias': 'mediterranean', 'title': 'Mediterranean'}, {'alias': 'cocktailbars', 'title': 'Cocktail Bars'}]"
zyyT2yiyxxamC-jKc0v-fg,Omar's Kitchen and Rum Bar,https://www.yelp.com/biz/omars-kitchen-and-rum-bar-new-york?adjust_creative=mOvLaDpE4mdRLtHvvM6tbw&utm_campaign=yelp_api_v3&utm_medium=api_v3_business_search&utm_source=mOvLaDpE4mdRLtHvvM6tbw,73,4.5,40.720422,-73.984525,"['29A Clinton St', 'New York, NY 10002']",New York,NY,10002,"[{'alias': 'caribbean', 'title': 'Caribbean'}, {'alias': 'bars', 'title': 'Bars'}]"
jAaVnUKLITkuhzwXIe0vLQ,Cafe Mogador,https://www.yelp.com/biz/cafe-mogador-brooklyn?adjust_creative=mOvLaDpE4mdRLtHvvM6tbw&utm_campaign=yelp_api_v3&utm_medium=api_v3_business_search&utm_source=mOvLaDpE4mdRLtHvvM6tbw,1174,4.5,40.719747,-73.95999300000001,"['133 Wythe Ave', 'Brooklyn, NY 11211']",Brooklyn,NY,11211,"[{'alias': 'moroccan', 'title': 'Moroccan'}, {'alias': 'breakfast_brunch', 'title': 'Breakfast & Brunch'}, {'alias': 'mediterranean', 'title': 'Mediterranean'}]"
klAhw3xLQi9GF1tf_HnS7w,Izakaya MEW,https://www.yelp.com/biz/izakaya-mew-new-york-3?adjust_creative=mOvLaDpE4mdRLtHvvM6tbw&utm_campaign=yelp_api_v3&utm_medium=api_v3_business_search&utm_source=mOvLaDpE4mdRLtHvvM6tbw,2322,4.0,40.750147999999996,-73.9863203465939,"['53 W 35th St', 'New York, NY 10001']",New York,NY,10001,"[{'alias': 'tapas', 'title': 'Tapas Bars'}, {'alias': 'sushi', 'title': 'Sushi Bars'}, {'alias': 'izakaya', 'title': 'Izakaya'}]"
UC3n_0vZ5zI1fvi7UzNZAg,Sabai Thai Restaurant,https://www.yelp.com/biz/sabai-thai-restaurant-new-york-3?adjust_creative=mOvLaDpE4mdRLtHvvM6tbw&utm_campaign=yelp_api_v3&utm_medium=api_v3_business_search&utm_source=mOvLaDpE4mdRLtHvvM6tbw,281,4.5,40.74422,-73.98365,"['432 Park Ave S', 'New York, NY 10016']",New York,NY,10016,"[{'alias': 'thai', 'title': 'Thai'}, {'alias': 'vegetarian', 'title': 'Vegetarian'}]"
Q9F2ocrmYuGt1yn3M7MOBw,Lucali,https://www.yelp.com/biz/lucali-brooklyn-3?adjust_creative=mOvLaDpE4mdRLtHvvM6tbw&utm_campaign=yelp_api_v3&utm_medium=api_v3_business_search&utm_source=mOvLaDpE4mdRLtHvvM6tbw,1600,4.5,40.6818,-74.00024,"['575 Henry St', 'Brooklyn, NY 11231']",Brooklyn,NY,11231,"[{'alias': 'pizza', 'title': 'Pizza'}]"
3d4zgFXojnTZ49j12t9YKg,The Headless Widow,https://www.yelp.com/biz/the-headless-widow-new-york?adjust_creative=mOvLaDpE4mdRLtHvvM6tbw&utm_campaign=yelp_api_v3&utm_medium=api_v3_business_search&utm_source=mOvLaDpE4mdRLtHvvM6tbw,50,4.5,40.72658,-73.9863,"['99 1st Ave', 'New York, NY 10003']",New York,NY,10003,"[{'alias': 'gastropubs', 'title': 'Gastropubs'}, {'alias': 'cocktailbars', 'title': 'Cocktail Bars'}]"
ADul90IX8-TdDaciLIS6pA,Petisco Brazuca,https://www.yelp.com/biz/petisco-brazuca-new-york?adjust_creative=mOvLaDpE4mdRLtHvvM6tbw&utm_campaign=yelp_api_v3&utm_medium=api_v3_business_search&utm_source=mOvLaDpE4mdRLtHvvM6tbw,49,4.5,40.692485299999994,-73.9431117,"['833 Dekalb Ave', 'New York, NY 11221']",New York,NY,11221,"[{'alias': 'brazilian', 'title': 'Brazilian'}]"
xGNzAsakHgbbl9fwgSoiUg,Kahlo,https://www.yelp.com/biz/kahlo-new-york?adjust_creative=mOvLaDpE4mdRLtHvvM6tbw&utm_campaign=yelp_api_v3&utm_medium=api_v3_business_search&utm_source=mOvLaDpE4mdRLtHvvM6tbw,127,4.5,40.752092,-74.0026757,"['525 West 29th St', 'New York, NY 10001']",New York,NY,10001,"[{'alias': 'mexican', 'title': 'Mexican'}]"
n20BmzZ-KGd0RCKcPGRv1A,Klom Klorm,https://www.yelp.com/biz/klom-klorm-brooklyn?adjust_creative=mOvLaDpE4mdRLtHvvM6tbw&utm_campaign=yelp_api_v3&utm_medium=api_v3_business_search&utm_source=mOvLaDpE4mdRLtHvvM6tbw,274,4.5,40.703179999999996,-73.91701,"['181 Wyckoff Ave', 'Brooklyn, NY 11237']",Brooklyn,NY,11237,"[{'alias': 'thai', 'title': 'Thai'}]"
xZ96vaoL-cQjfotmUKtjJQ,Barn Joo 35,https://www.yelp.com/biz/barn-joo-35-new-york?adjust_creative=mOvLaDpE4mdRLtHvvM6tbw&utm_campaign=yelp_api_v3&utm_medium=api_v3_business_search&utm_source=mOvLaDpE4mdRLtHvvM6tbw,2021,4.5,40.74964,-73.98581999999999,"['34 W 35th St', 'New York, NY 10001']",New York,NY,10001,"[{'alias': 'korean', 'title': 'Korean'}, {'alias': 'gastropubs', 'title': 'Gastropubs'}, {'alias': 'tapasmallplates', 'title': 'Tapas/Small Plates'}]"
hfMtSdxRsC3JQP3yrm6nag,Claw Daddy's,https://www.yelp.com/biz/claw-daddys-new-york?adjust_creative=mOvLaDpE4mdRLtHvvM6tbw&utm_campaign=yelp_api_v3&utm_medium=api_v3_business_search&utm_source=mOvLaDpE4mdRLtHvvM6tbw,1707,4.0,40.722071,-73.98846999999999,"['185 Orchard St', 'New York, NY 10002']",New York,NY,10002,"[{'alias': 'cajun', 'title': 'Cajun/Creole'}, {'alias': 'seafood', 'title': 'Seafood'}]"
nD7Hcq5aaCASbWzc0-Sg3A,Bobwhite Counter,https://www.yelp.com/biz/bobwhite-counter-new-york-7?adjust_creative=mOvLaDpE4mdRLtHvvM6tbw&utm_campaign=yelp_api_v3&utm_medium=api_v3_business_search&utm_source=mOvLaDpE4mdRLtHvvM6tbw,804,4.5,40.72365,-73.97899,"['94 Ave C', 'New York, NY 10009']",New York,NY,10009,"[{'alias': 'southern', 'title': 'Southern'}, {'alias': 'comfortfood', 'title': 'Comfort Food'}, {'alias': 'beer_and_wine', 'title': 'Beer, Wine & Spirits'}]"
gXnC_aZR09BvqEQKGKFjBg,BCD Tofu House,https://www.yelp.com/biz/bcd-tofu-house-new-york-3?adjust_creative=mOvLaDpE4mdRLtHvvM6tbw&utm_campaign=yelp_api_v3&utm_medium=api_v3_business_search&utm_source=mOvLaDpE4mdRLtHvvM6tbw,2040,4.0,40.747509,-73.986079,"['5W 32nd St', 'New York, NY 10001']",New York,NY,10001,"[{'alias': 'korean', 'title': 'Korean'}]"
_N92SH1Zi-Hbxn_bNHFz0Q,Noodle Pudding,https://www.yelp.com/biz/noodle-pudding-brooklyn?adjust_creative=mOvLaDpE4mdRLtHvvM6tbw&utm_campaign=yelp_api_v3&utm_medium=api_v3_business_search&utm_source=mOvLaDpE4mdRLtHvvM6tbw,563,4.0,40.69979,-73.99203,"['38 Henry St', 'Brooklyn, NY 11201']",Brooklyn,NY,11201,"[{'alias': 'italian', 'title': 'Italian'}]"
_4Grm99JEHnDWskCHAJfUg,Kiki's,https://www.yelp.com/biz/kikis-new-york?adjust_creative=mOvLaDpE4mdRLtHvvM6tbw&utm_campaign=yelp_api_v3&utm_medium=api_v3_business_search&utm_source=mOvLaDpE4mdRLtHvvM6tbw,625,4.0,40.7144971858255,-73.99185539313359,"['130 Division St', 'New York, NY 10002']",New York,NY,10002,"[{'alias': 'greek', 'title': 'Greek'}, {'alias': 'mediterranean', 'title': 'Mediterranean'}]"
BPZfuPvSxCfoppU4lPFm0Q,DOMODOMO - New York,https://www.yelp.com/biz/domodomo-new-york-new-york-4?adjust_creative=mOvLaDpE4mdRLtHvvM6tbw&utm_campaign=yelp_api_v3&utm_medium=api_v3_business_search&utm_source=mOvLaDpE4mdRLtHvvM6tbw,1131,4.0,40.72803,-74.00166999999999,"['140 W Houston St', 'New York, NY 10012']",New York,NY,10012,"[{'alias': 'japanese', 'title': 'Japanese'}, {'alias': 'sushi', 'title': 'Sushi Bars'}]"
qBGKigOGn_flCx1apxPzlA,Piccola Cucina Osteria,https://www.yelp.com/biz/piccola-cucina-osteria-new-york?adjust_creative=mOvLaDpE4mdRLtHvvM6tbw&utm_campaign=yelp_api_v3&utm_medium=api_v3_business_search&utm_source=mOvLaDpE4mdRLtHvvM6tbw,565,4.5,40.72506,-74.00322,"['196 Spring St', 'New York, NY 10012']",New York,NY,10012,"[{'alias': 'italian', 'title': 'Italian'}]"
M-odQWSEfsR2mVEw7nKG-g,Nyonya,https://www.yelp.com/biz/nyonya-new-york?adjust_creative=mOvLaDpE4mdRLtHvvM6tbw&utm_campaign=yelp_api_v3&utm_medium=api_v3_business_search&utm_source=mOvLaDpE4mdRLtHvvM6tbw,2091,4.0,40.7190148,-73.9968228,"['199 Grand St', 'New York, NY 10013']",New York,NY,10013,"[{'alias': 'asianfusion', 'title': 'Asian Fusion'}, {'alias': 'malaysian', 'title': 'Malaysian'}, {'alias': 'chinese', 'title': 'Chinese'}]"
-J8VuX3wGrYSOBu2G0hMsw,Katsu-Hama,https://www.yelp.com/biz/katsu-hama-new-york?adjust_creative=mOvLaDpE4mdRLtHvvM6tbw&utm_campaign=yelp_api_v3&utm_medium=api_v3_business_search&utm_source=mOvLaDpE4mdRLtHvvM6tbw,1334,4.0,40.75638,-73.97759,"['11 E 47th St', 'New York, NY 10017']",New York,NY,10017,"[{'alias': 'japanese', 'title': 'Japanese'}]"
L0XYugkXpuACPMQ451MB8g,El Mate,https://www.yelp.com/biz/el-mate-brooklyn?adjust_creative=mOvLaDpE4mdRLtHvvM6tbw&utm_campaign=yelp_api_v3&utm_medium=api_v3_business_search&utm_source=mOvLaDpE4mdRLtHvvM6tbw,306,4.5,40.674978220350596,-73.99952248764049,"['550 Court St', 'Brooklyn, NY 11231']",Brooklyn,NY,11231,"[{'alias': 'latin', 'title': 'Latin American'}]"
d7_W8J8T0PESBsILMsGKGQ,Sea Wolf - Bushwick,https://www.yelp.com/biz/sea-wolf-bushwick-brooklyn?adjust_creative=mOvLaDpE4mdRLtHvvM6tbw&utm_campaign=yelp_api_v3&utm_medium=api_v3_business_search&utm_source=mOvLaDpE4mdRLtHvvM6tbw,494,4.0,40.70683,-73.9228,"['19 Wyckoff Ave', 'Brooklyn, NY 11237']",Brooklyn,NY,11237,"[{'alias': 'cocktailbars', 'title': 'Cocktail Bars'}, {'alias': 'seafood', 'title': 'Seafood'}, {'alias': 'tradamerican', 'title': 'American (Traditional)'}]"
jc7lVTvmYMIK5RNpENtS6w,Szechuan Mountain House,https://www.yelp.com/biz/szechuan-mountain-house-new-york-2?adjust_creative=mOvLaDpE4mdRLtHvvM6tbw&utm_campaign=yelp_api_v3&utm_medium=api_v3_business_search&utm_source=mOvLaDpE4mdRLtHvvM6tbw,367,4.0,40.72911,-73.98858,"['23 St Marks Pl', 'New York, NY 10003']",New York,NY,10003,"[{'alias': 'szechuan', 'title': 'Szechuan'}]"
R3fMQtSL0MrMUyW_Q32oNw,NAYA,https://www.yelp.com/biz/naya-new-york-20?adjust_creative=mOvLaDpE4mdRLtHvvM6tbw&utm_campaign=yelp_api_v3&utm_medium=api_v3_business_search&utm_source=mOvLaDpE4mdRLtHvvM6tbw,147,4.5,40.7021301747589,-74.01183627685991,"['One New York Plz', '-', 'New York, NY 10004']",New York,NY,10004,"[{'alias': 'lebanese', 'title': 'Lebanese'}, {'alias': 'mediterranean', 'title': 'Mediterranean'}]"
tsiC3VpO-hZEb98Qk3p-DQ,Amy Ruth's,https://www.yelp.com/biz/amy-ruths-new-york?adjust_creative=mOvLaDpE4mdRLtHvvM6tbw&utm_campaign=yelp_api_v3&utm_medium=api_v3_business_search&utm_source=mOvLaDpE4mdRLtHvvM6tbw,2638,4.0,40.802479999999996,-73.95038000000001,"['113 W 116th St', 'New York, NY 10026']",New York,NY,10026,"[{'alias': 'southern', 'title': 'Southern'}, {'alias': 'soulfood', 'title': 'Soul Food'}]"
gtXP0CmOnBbgfnff7VXa7A,Pastis,https://www.yelp.com/biz/pastis-new-york-3?adjust_creative=mOvLaDpE4mdRLtHvvM6tbw&utm_campaign=yelp_api_v3&utm_medium=api_v3_business_search&utm_source=mOvLaDpE4mdRLtHvvM6tbw,196,4.0,40.73928,-74.00695,"['52 Gansevoort St', 'New York, NY 10014']",New York,NY,10014,"[{'alias': 'french', 'title': 'French'}]"
e64Y17DJgjotSz8B9gEI7Q,Ugly Baby,https://www.yelp.com/biz/ugly-baby-brooklyn-3?adjust_creative=mOvLaDpE4mdRLtHvvM6tbw&utm_campaign=yelp_api_v3&utm_medium=api_v3_business_search&utm_source=mOvLaDpE4mdRLtHvvM6tbw,346,4.5,40.67795,-73.9961,"['407 Smith St', 'Brooklyn, NY 11231']",Brooklyn,NY,11231,"[{'alias': 'thai', 'title': 'Thai'}, {'alias': 'bars', 'title': 'Bars'}]"
cg7IxNN5wyrXVP5tkCaZRg,Miss Ada,https://www.yelp.com/biz/miss-ada-brooklyn-2?adjust_creative=mOvLaDpE4mdRLtHvvM6tbw&utm_campaign=yelp_api_v3&utm_medium=api_v3_business_search&utm_source=mOvLaDpE4mdRLtHvvM6tbw,243,4.5,40.689436,-73.9723809,"['184 Dekalb Ave', 'Brooklyn, NY 11205']",Brooklyn,NY,11205,"[{'alias': 'mediterranean', 'title': 'Mediterranean'}, {'alias': 'cocktailbars', 'title': 'Cocktail Bars'}]"
TAANt0fPbfHqVP5LyMBioA,Kashkaval Garden,https://www.yelp.com/biz/kashkaval-garden-new-york?adjust_creative=mOvLaDpE4mdRLtHvvM6tbw&utm_campaign=yelp_api_v3&utm_medium=api_v3_business_search&utm_source=mOvLaDpE4mdRLtHvvM6tbw,576,4.0,40.766758,-73.986144,"['852 9th Ave', 'New York, NY 10019']",New York,NY,10019,"[{'alias': 'mediterranean', 'title': 'Mediterranean'}, {'alias': 'fondue', 'title': 'Fondue'}, {'alias': 'tapas', 'title': 'Tapas Bars'}]"
npiIhpcWePbVT3JYEcy3zg,Wayan,https://www.yelp.com/biz/wayan-new-york-4?adjust_creative=mOvLaDpE4mdRLtHvvM6tbw&utm_campaign=yelp_api_v3&utm_medium=api_v3_business_search&utm_source=mOvLaDpE4mdRLtHvvM6tbw,225,4.5,40.721381313920205,-73.9950757664721,"['20 Spring St', 'New York, NY 10012']",New York,NY,10012,"[{'alias': 'indonesian', 'title': 'Indonesian'}, {'alias': 'french', 'title': 'French'}, {'alias': 'venues', 'title': 'Venues & Event Spaces'}]"
HUKn7SlSjYtemmPiGLnD2w,Rice kitchen,https://www.yelp.com/biz/rice-kitchen-new-york?adjust_creative=mOvLaDpE4mdRLtHvvM6tbw&utm_campaign=yelp_api_v3&utm_medium=api_v3_business_search&utm_source=mOvLaDpE4mdRLtHvvM6tbw,30,5.0,40.725165999999994,-74.003712,"['204 Spring St', 'New York, NY 10012']",New York,NY,10012,"[{'alias': 'korean', 'title': 'Korean'}, {'alias': 'bbq', 'title': 'Barbeque'}]"
TN4RnyqHMSupRFot4Q-_EA,Ippudo Westside,https://www.yelp.com/biz/ippudo-westside-new-york?adjust_creative=mOvLaDpE4mdRLtHvvM6tbw&utm_campaign=yelp_api_v3&utm_medium=api_v3_business_search&utm_source=mOvLaDpE4mdRLtHvvM6tbw,3692,4.0,40.76344,-73.98661,"['321 W 51st St', 'New York, NY 10019']",New York,NY,10019,"[{'alias': 'ramen', 'title': 'Ramen'}]"
Zzvqc7XcyGVX5bnjGN9IXA,Pig Beach,https://www.yelp.com/biz/pig-beach-brooklyn?adjust_creative=mOvLaDpE4mdRLtHvvM6tbw&utm_campaign=yelp_api_v3&utm_medium=api_v3_business_search&utm_source=mOvLaDpE4mdRLtHvvM6tbw,581,4.0,40.6792941479875,-73.9880264255794,"['480 Union St', 'Brooklyn, NY 11231']",Brooklyn,NY,11231,"[{'alias': 'bbq', 'title': 'Barbeque'}, {'alias': 'bars', 'title': 'Bars'}]"
Orbsfc3nI21mQ8cwSPahhg,The Four Horsemen,https://www.yelp.com/biz/the-four-horsemen-brooklyn?adjust_creative=mOvLaDpE4mdRLtHvvM6tbw&utm_campaign=yelp_api_v3&utm_medium=api_v3_business_search&utm_source=mOvLaDpE4mdRLtHvvM6tbw,186,4.5,40.71305,-73.95732,"['295 Grand St', 'Brooklyn, NY 11211']",Brooklyn,NY,11211,"[{'alias': 'wine_bars', 'title': 'Wine Bars'}, {'alias': 'newamerican', 'title': 'American (New)'}]"
2ggi1luerd3Mf_C82JvCYg,Grimaldi's Pizzeria,https://www.yelp.com/biz/grimaldis-pizzeria-brooklyn-4?adjust_creative=mOvLaDpE4mdRLtHvvM6tbw&utm_campaign=yelp_api_v3&utm_medium=api_v3_business_search&utm_source=mOvLaDpE4mdRLtHvvM6tbw,4622,3.5,40.702583000000004,-73.9932413,"['1 Front St', 'Brooklyn, NY 11201']",Brooklyn,NY,11201,"[{'alias': 'pizza', 'title': 'Pizza'}]"
UZ7C31NlfVQiUamJYbsiGA,Kind Of Soul,https://www.yelp.com/biz/kind-of-soul-brooklyn?adjust_creative=mOvLaDpE4mdRLtHvvM6tbw&utm_campaign=yelp_api_v3&utm_medium=api_v3_business_search&utm_source=mOvLaDpE4mdRLtHvvM6tbw,81,4.5,40.68573,-73.9813,"['497 Atlantic Ave', 'Brooklyn, NY 11217']",Brooklyn,NY,11217,"[{'alias': 'southern', 'title': 'Southern'}, {'alias': 'newamerican', 'title': 'American (New)'}, {'alias': 'cocktailbars', 'title': 'Cocktail Bars'}]"
Pf3tk5fYN-GVxXWRokjIWg,Colonia Verde,https://www.yelp.com/biz/colonia-verde-brooklyn?adjust_creative=mOvLaDpE4mdRLtHvvM6tbw&utm_campaign=yelp_api_v3&utm_medium=api_v3_business_search&utm_source=mOvLaDpE4mdRLtHvvM6tbw,171,4.0,40.689735412597706,-73.970703125,"['219 Dekalb Ave', 'Brooklyn, NY 11205']",Brooklyn,NY,11205,"[{'alias': 'latin', 'title': 'Latin American'}]"
HodL0fXoF08C3Ir-kLeTtw,Forma Pasta Factory,https://www.yelp.com/biz/forma-pasta-factory-brooklyn?adjust_creative=mOvLaDpE4mdRLtHvvM6tbw&utm_campaign=yelp_api_v3&utm_medium=api_v3_business_search&utm_source=mOvLaDpE4mdRLtHvvM6tbw,212,4.5,40.72371,-73.95156999999999,"['14 Bedford Ave', 'Brooklyn, NY 11222']",Brooklyn,NY,11222,"[{'alias': 'pastashops', 'title': 'Pasta Shops'}, {'alias': 'italian', 'title': 'Italian'}, {'alias': 'salad', 'title': 'Salad'}]"
9YXvNE2jpEhA4k6M8WDH7A,Ñaño Ecuadorian Kitchen,https://www.yelp.com/biz/%C3%B1a%C3%B1o-ecuadorian-kitchen-new-york?adjust_creative=mOvLaDpE4mdRLtHvvM6tbw&utm_campaign=yelp_api_v3&utm_medium=api_v3_business_search&utm_source=mOvLaDpE4mdRLtHvvM6tbw,559,4.5,40.7631,-73.99335,"['691 10th Ave', 'New York, NY 10036']",New York,NY,10036,"[{'alias': 'latin', 'title': 'Latin American'}, {'alias': 'bars', 'title': 'Bars'}]"
Vw8NSOu7aS8de1vVhFpemQ,Yia Yia's Taverna,https://www.yelp.com/biz/yia-yias-taverna-brooklyn-4?adjust_creative=mOvLaDpE4mdRLtHvvM6tbw&utm_campaign=yelp_api_v3&utm_medium=api_v3_business_search&utm_source=mOvLaDpE4mdRLtHvvM6tbw,183,5.0,40.70401,-73.93086,"['1035 Flushing Ave', 'Brooklyn, NY 11237']",Brooklyn,NY,11237,"[{'alias': 'greek', 'title': 'Greek'}]"
OwH9eXxsBeeYl8s7TXUBiA,San Blas,https://www.yelp.com/biz/san-blas-brooklyn-2?adjust_creative=mOvLaDpE4mdRLtHvvM6tbw&utm_campaign=yelp_api_v3&utm_medium=api_v3_business_search&utm_source=mOvLaDpE4mdRLtHvvM6tbw,53,4.0,40.694495,-73.993709,"['140 Montague St', 'Brooklyn', 'Brooklyn, NY 11201']",Brooklyn,NY,11201,"[{'alias': 'newmexican', 'title': 'New Mexican Cuisine'}]"
J9UA6rzI5WW_cDGjwDnF5g,Tsurutontan Udon Noodle Brasserie,https://www.yelp.com/biz/tsurutontan-udon-noodle-brasserie-new-york?adjust_creative=mOvLaDpE4mdRLtHvvM6tbw&utm_campaign=yelp_api_v3&utm_medium=api_v3_business_search&utm_source=mOvLaDpE4mdRLtHvvM6tbw,1868,4.0,40.736779999999996,-73.9910699,"['21 E 16th St', 'New York, NY 10003']",New York,NY,10003,"[{'alias': 'japanese', 'title': 'Japanese'}, {'alias': 'noodles', 'title': 'Noodles'}, {'alias': 'soup', 'title': 'Soup'}]"
ULt3kmA0_hbZ3j6cMORCaA,Root & Bone,https://www.yelp.com/biz/root-and-bone-new-york?adjust_creative=mOvLaDpE4mdRLtHvvM6tbw&utm_campaign=yelp_api_v3&utm_medium=api_v3_business_search&utm_source=mOvLaDpE4mdRLtHvvM6tbw,1620,4.0,40.722807987283105,-73.9833535829059,"['200 E 3rd St', 'New York, NY 10009']",New York,NY,10009,"[{'alias': 'southern', 'title': 'Southern'}, {'alias': 'comfortfood', 'title': 'Comfort Food'}, {'alias': 'desserts', 'title': 'Desserts'}]"
J3NT61-AH5d5Gu5tFJhYSw,The Cabin NYC,https://www.yelp.com/biz/the-cabin-nyc-new-york-2?adjust_creative=mOvLaDpE4mdRLtHvvM6tbw&utm_campaign=yelp_api_v3&utm_medium=api_v3_business_search&utm_source=mOvLaDpE4mdRLtHvvM6tbw,235,4.0,40.723929999999996,-73.98383000000001,"['205 E 4th St', 'New York, NY 10009']",New York,NY,10009,"[{'alias': 'newamerican', 'title': 'American (New)'}, {'alias': 'cocktailbars', 'title': 'Cocktail Bars'}, {'alias': 'breakfast_brunch', 'title': 'Breakfast & Brunch'}]"
M8xnlKQOh0tl58LJCnPUVA,Ravagh Persian Grill,https://www.yelp.com/biz/ravagh-persian-grill-new-york-3?adjust_creative=mOvLaDpE4mdRLtHvvM6tbw&utm_campaign=yelp_api_v3&utm_medium=api_v3_business_search&utm_source=mOvLaDpE4mdRLtHvvM6tbw,319,4.0,40.7618025365842,-73.96055255388471,"['1135 1st Ave', 'New York, NY 10065']",New York,NY,10065,"[{'alias': 'persian', 'title': 'Persian/Iranian'}, {'alias': 'mediterranean', 'title': 'Mediterranean'}]"
5S8ZK9XLdl4l645twbNYZQ,Boqueria,https://www.yelp.com/biz/boqueria-new-york-16?adjust_creative=mOvLaDpE4mdRLtHvvM6tbw&utm_campaign=yelp_api_v3&utm_medium=api_v3_business_search&utm_source=mOvLaDpE4mdRLtHvvM6tbw,744,4.0,40.771522,-73.956073,"['1460 2nd Ave', 'New York, NY 10075']",New York,NY,10075,"[{'alias': 'tapasmallplates', 'title': 'Tapas/Small Plates'}, {'alias': 'spanish', 'title': 'Spanish'}, {'alias': 'tapas', 'title': 'Tapas Bars'}]"
EmJ7rfmv2y6lQZxgA8U__g,Red Peony Chinese Cuisine,https://www.yelp.com/biz/red-peony-chinese-cuisine-new-york-4?adjust_creative=mOvLaDpE4mdRLtHvvM6tbw&utm_campaign=yelp_api_v3&utm_medium=api_v3_business_search&utm_source=mOvLaDpE4mdRLtHvvM6tbw,292,4.5,40.76278,-73.97589,"['24 W 56th St', 'New York, NY 10019']",New York,NY,10019,"[{'alias': 'shanghainese', 'title': 'Shanghainese'}, {'alias': 'szechuan', 'title': 'Szechuan'}, {'alias': 'cantonese', 'title': 'Cantonese'}]"
R26zweQ8-xoZS7iHkXQOvw,Shanghai 21,https://www.yelp.com/biz/shanghai-21-new-york-2?adjust_creative=mOvLaDpE4mdRLtHvvM6tbw&utm_campaign=yelp_api_v3&utm_medium=api_v3_business_search&utm_source=mOvLaDpE4mdRLtHvvM6tbw,1673,4.0,40.71441,-73.99902,"['21 Mott St', 'New York, NY 10013']",New York,NY,10013,"[{'alias': 'shanghainese', 'title': 'Shanghainese'}]"
wGFSTTB6b4MHJJUzBnVJeg,Top Thai Greenwich,https://www.yelp.com/biz/top-thai-greenwich-new-york?adjust_creative=mOvLaDpE4mdRLtHvvM6tbw&utm_campaign=yelp_api_v3&utm_medium=api_v3_business_search&utm_source=mOvLaDpE4mdRLtHvvM6tbw,1504,4.5,40.729771,-73.999392,"['235 Sullivan St', 'New York, NY 10012']",New York,NY,10012,"[{'alias': 'thai', 'title': 'Thai'}, {'alias': 'cocktailbars', 'title': 'Cocktail Bars'}, {'alias': 'halal', 'title': 'Halal'}]"
LMyvruexOQzzHQrAgbdqiA,Nowon,https://www.yelp.com/biz/nowon-new-york-2?adjust_creative=mOvLaDpE4mdRLtHvvM6tbw&utm_campaign=yelp_api_v3&utm_medium=api_v3_business_search&utm_source=mOvLaDpE4mdRLtHvvM6tbw,93,4.5,40.72532,-73.98334,"['507 East 6th St', 'New York, NY 10009']",New York,NY,10009,"[{'alias': 'korean', 'title': 'Korean'}, {'alias': 'newamerican', 'title': 'American (New)'}]"
TQzGf4k3HXyMbnNkYKKQSw,Oxalis,https://www.yelp.com/biz/oxalis-brooklyn?adjust_creative=mOvLaDpE4mdRLtHvvM6tbw&utm_campaign=yelp_api_v3&utm_medium=api_v3_business_search&utm_source=mOvLaDpE4mdRLtHvvM6tbw,128,4.5,40.673109000000004,-73.96262790000002,"['791 Washington Ave', 'Brooklyn, NY 11238']",Brooklyn,NY,11238,"[{'alias': 'french', 'title': 'French'}, {'alias': 'newamerican', 'title': 'American (New)'}]"
E9NMNWvV70HV5gB369N0EA,Nerai,https://www.yelp.com/biz/nerai-new-york?adjust_creative=mOvLaDpE4mdRLtHvvM6tbw&utm_campaign=yelp_api_v3&utm_medium=api_v3_business_search&utm_source=mOvLaDpE4mdRLtHvvM6tbw,507,4.5,40.760258,-73.97308570000001,"['55 E 54th St', 'New York, NY 10022']",New York,NY,10022,"[{'alias': 'greek', 'title': 'Greek'}, {'alias': 'seafood', 'title': 'Seafood'}, {'alias': 'mediterranean', 'title': 'Mediterranean'}]"
8wMJdpw2R_4VfS55itB_gQ,Sweetwater Restaurant,https://www.yelp.com/biz/sweetwater-restaurant-brooklyn-2?adjust_creative=mOvLaDpE4mdRLtHvvM6tbw&utm_campaign=yelp_api_v3&utm_medium=api_v3_business_search&utm_source=mOvLaDpE4mdRLtHvvM6tbw,373,4.0,40.7184736,-73.96001779999999,"['105 N 6th St', 'Brooklyn, NY 11249']",Brooklyn,NY,11249,"[{'alias': 'newamerican', 'title': 'American (New)'}, {'alias': 'bars', 'title': 'Bars'}]"
_saXnBy0Wq2Gb3YusWZhqw,Five Senses,https://www.yelp.com/biz/five-senses-new-york?adjust_creative=mOvLaDpE4mdRLtHvvM6tbw&utm_campaign=yelp_api_v3&utm_medium=api_v3_business_search&utm_source=mOvLaDpE4mdRLtHvvM6tbw,1431,4.0,40.747573158626,-73.9863122632311,"['9 W 32nd St', 'New York, NY 10001']",New York,NY,10001,"[{'alias': 'korean', 'title': 'Korean'}, {'alias': 'bbq', 'title': 'Barbeque'}]"
C2o3Iw-DXjoUJFgQIbiqkQ,BoCaphe,https://www.yelp.com/biz/bocaph%C3%AA-new-york-3?adjust_creative=mOvLaDpE4mdRLtHvvM6tbw&utm_campaign=yelp_api_v3&utm_medium=api_v3_business_search&utm_source=mOvLaDpE4mdRLtHvvM6tbw,1532,4.0,40.722062,-73.997587,"['222 Lafayette St', 'New York, NY 10012']",New York,NY,10012,"[{'alias': 'vietnamese', 'title': 'Vietnamese'}, {'alias': 'breakfast_brunch', 'title': 'Breakfast & Brunch'}, {'alias': 'french', 'title': 'French'}]"
vgg1dvDP-9tFWSacN4q0nA,Coppelia,https://www.yelp.com/biz/coppelia-new-york?adjust_creative=mOvLaDpE4mdRLtHvvM6tbw&utm_campaign=yelp_api_v3&utm_medium=api_v3_business_search&utm_source=mOvLaDpE4mdRLtHvvM6tbw,1349,4.0,40.7389111700125,-73.9999985153443,"['207 W 14th St', 'New York, NY 10011']",New York,NY,10011,"[{'alias': 'cuban', 'title': 'Cuban'}, {'alias': 'latin', 'title': 'Latin American'}, {'alias': 'bars', 'title': 'Bars'}]"
0GN6l4FAknTFSWZhEan45A,GunBae Tribeca,https://www.yelp.com/biz/gunbae-tribeca-new-york?adjust_creative=mOvLaDpE4mdRLtHvvM6tbw&utm_campaign=yelp_api_v3&utm_medium=api_v3_business_search&utm_source=mOvLaDpE4mdRLtHvvM6tbw,288,4.0,40.714683,-74.010223,"['67 Murray St', 'New York, NY 10007']",New York,NY,10007,"[{'alias': 'korean', 'title': 'Korean'}, {'alias': 'karaoke', 'title': 'Karaoke'}, {'alias': 'bbq', 'title': 'Barbeque'}]"
raqwXUBlnc0e8c7CYmxEJQ,Scarpetta,https://www.yelp.com/biz/scarpetta-new-york?adjust_creative=mOvLaDpE4mdRLtHvvM6tbw&utm_campaign=yelp_api_v3&utm_medium=api_v3_business_search&utm_source=mOvLaDpE4mdRLtHvvM6tbw,1923,4.0,40.744509,-73.9856,"['88 Madison Ave', 'New York, NY 10016']",New York,NY,10016,"[{'alias': 'italian', 'title': 'Italian'}]"
62Kedrco374IuZ_OFb0BxA,3 Times 茅庐,https://www.yelp.com/biz/3-times-%E8%8C%85%E5%BA%90-new-york-5?adjust_creative=mOvLaDpE4mdRLtHvvM6tbw&utm_campaign=yelp_api_v3&utm_medium=api_v3_business_search&utm_source=mOvLaDpE4mdRLtHvvM6tbw,99,4.0,40.73285,-73.99104,"['818 Broadway', 'New York, NY 10003']",New York,NY,10003,"[{'alias': 'shanghainese', 'title': 'Shanghainese'}]"
clOFor0bFSjse7EUfdRacg,Faro,https://www.yelp.com/biz/faro-brooklyn?adjust_creative=mOvLaDpE4mdRLtHvvM6tbw&utm_campaign=yelp_api_v3&utm_medium=api_v3_business_search&utm_source=mOvLaDpE4mdRLtHvvM6tbw,278,4.0,40.707407,-73.922839,"['436 Jefferson St', 'Brooklyn, NY 11237']",Brooklyn,NY,11237,"[{'alias': 'italian', 'title': 'Italian'}]"
MNNpsRXe7Wt5m3Jla9Wk0w,The Alcove,https://www.yelp.com/biz/the-alcove-sunnyside?adjust_creative=mOvLaDpE4mdRLtHvvM6tbw&utm_campaign=yelp_api_v3&utm_medium=api_v3_business_search&utm_source=mOvLaDpE4mdRLtHvvM6tbw,890,5.0,40.7459065,-73.915103,"['41-11 49th St', 'Sunnyside, NY 11104']",Sunnyside,NY,11104,"[{'alias': 'gastropubs', 'title': 'Gastropubs'}, {'alias': 'tapas', 'title': 'Tapas Bars'}, {'alias': 'breakfast_brunch', 'title': 'Breakfast & Brunch'}]"
xEnNFXtMLDF5kZDxfaCJgA,The Halal Guys,https://www.yelp.com/biz/the-halal-guys-new-york-2?adjust_creative=mOvLaDpE4mdRLtHvvM6tbw&utm_campaign=yelp_api_v3&utm_medium=api_v3_business_search&utm_source=mOvLaDpE4mdRLtHvvM6tbw,9509,4.0,40.76477,-73.98614,"['W 53rd St', 'New York, NY 10019']",New York,NY,10019,"[{'alias': 'foodstands', 'title': 'Food Stands'}, {'alias': 'mideastern', 'title': 'Middle Eastern'}, {'alias': 'halal', 'title': 'Halal'}]"
9mWw-sK4RjSPYRHQN_S9ZQ,Tradisyon,https://www.yelp.com/biz/tradisyon-new-york-2?adjust_creative=mOvLaDpE4mdRLtHvvM6tbw&utm_campaign=yelp_api_v3&utm_medium=api_v3_business_search&utm_source=mOvLaDpE4mdRLtHvvM6tbw,72,4.5,40.76491,-73.987537,"['790 9th Ave', 'New York, NY 10019']",New York,NY,10019,"[{'alias': 'filipino', 'title': 'Filipino'}, {'alias': 'comfortfood', 'title': 'Comfort Food'}]"
Vs8kQ4R381y27AH018gLpg,Supper,https://www.yelp.com/biz/supper-new-york?adjust_creative=mOvLaDpE4mdRLtHvvM6tbw&utm_campaign=yelp_api_v3&utm_medium=api_v3_business_search&utm_source=mOvLaDpE4mdRLtHvvM6tbw,1303,4.0,40.7229,-73.98527,"['156 E 2nd St', 'New York, NY 10009']",New York,NY,10009,"[{'alias': 'italian', 'title': 'Italian'}]"
FiRB9Ek3Xo9JHwXgBYITYg,La Sirène-Soho,https://www.yelp.com/biz/la-sir%C3%A8ne-soho-new-york?adjust_creative=mOvLaDpE4mdRLtHvvM6tbw&utm_campaign=yelp_api_v3&utm_medium=api_v3_business_search&utm_source=mOvLaDpE4mdRLtHvvM6tbw,1603,4.5,40.7243642217227,-74.005708694458,"['558 Broome St', 'New York, NY 10013']",New York,NY,10013,"[{'alias': 'french', 'title': 'French'}]"
m86CNmYThtzzWB3nPnrhbg,Emily - West Village,https://www.yelp.com/biz/emily-west-village-new-york?adjust_creative=mOvLaDpE4mdRLtHvvM6tbw&utm_campaign=yelp_api_v3&utm_medium=api_v3_business_search&utm_source=mOvLaDpE4mdRLtHvvM6tbw,671,4.0,40.729330068469,-74.00384000735791,"['35 Downing St', 'New York, NY 10014']",New York,NY,10014,"[{'alias': 'pizza', 'title': 'Pizza'}, {'alias': 'burgers', 'title': 'Burgers'}]"
2LcsDUTlvovnFz-SEcSJTQ,Astoria Seafood,https://www.yelp.com/biz/astoria-seafood-long-island-city?adjust_creative=mOvLaDpE4mdRLtHvvM6tbw&utm_campaign=yelp_api_v3&utm_medium=api_v3_business_search&utm_source=mOvLaDpE4mdRLtHvvM6tbw,712,4.0,40.754,-73.9298699,"['37-10 33rd St', 'Long Island City, NY 11101']",Long Island City,NY,11101,"[{'alias': 'seafood', 'title': 'Seafood'}, {'alias': 'greek', 'title': 'Greek'}, {'alias': 'mediterranean', 'title': 'Mediterranean'}]"
t_UObgQX6M_ZRn3tk2cXYQ,Let's Meat,https://www.yelp.com/biz/lets-meat-new-york?adjust_creative=mOvLaDpE4mdRLtHvvM6tbw&utm_campaign=yelp_api_v3&utm_medium=api_v3_business_search&utm_source=mOvLaDpE4mdRLtHvvM6tbw,1080,4.0,40.746774,-73.985524,"['307 5th Ave', 'New York, NY 10016']",New York,NY,10016,"[{'alias': 'korean', 'title': 'Korean'}, {'alias': 'bbq', 'title': 'Barbeque'}]"
uYLIo8FCr9Ug5SFORDdsPA,The Burgary,https://www.yelp.com/biz/the-burgary-new-york?adjust_creative=mOvLaDpE4mdRLtHvvM6tbw&utm_campaign=yelp_api_v3&utm_medium=api_v3_business_search&utm_source=mOvLaDpE4mdRLtHvvM6tbw,261,4.5,40.7193370804105,-73.9850228946549,"['67 Clinton St', 'New York, NY 10002']",New York,NY,10002,"[{'alias': 'burgers', 'title': 'Burgers'}]"
ptWTdgSzSpH-0LD24QIH-w,Wild Ink,https://www.yelp.com/biz/wild-ink-new-york?adjust_creative=mOvLaDpE4mdRLtHvvM6tbw&utm_campaign=yelp_api_v3&utm_medium=api_v3_business_search&utm_source=mOvLaDpE4mdRLtHvvM6tbw,144,4.0,40.753754,-74.001388,"['500 W 33rd St', 'Fl 5', 'New York, NY 10001']",New York,NY,10001,"[{'alias': 'asianfusion', 'title': 'Asian Fusion'}]"
8JDwcklaawqYprHg0c9aIA,The Brooklyn Tree,https://www.yelp.com/biz/the-brooklyn-tree-brooklyn-2?adjust_creative=mOvLaDpE4mdRLtHvvM6tbw&utm_campaign=yelp_api_v3&utm_medium=api_v3_business_search&utm_source=mOvLaDpE4mdRLtHvvM6tbw,161,4.5,40.70734,-73.94185999999999,"['188 Montrose Ave', 'Brooklyn, NY 11206']",Brooklyn,NY,11206,"[{'alias': 'tradamerican', 'title': 'American (Traditional)'}, {'alias': 'comfortfood', 'title': 'Comfort Food'}]"
5k_jwjhdFMPUNWhouGNzuA,Misi,https://www.yelp.com/biz/misi-brooklyn?adjust_creative=mOvLaDpE4mdRLtHvvM6tbw&utm_campaign=yelp_api_v3&utm_medium=api_v3_business_search&utm_source=mOvLaDpE4mdRLtHvvM6tbw,306,4.0,40.713409999999996,-73.96661999999999,"['329 Kent Ave', 'Brooklyn, NY 11249']",Brooklyn,NY,11249,"[{'alias': 'italian', 'title': 'Italian'}]"
iXV4FMZPru7BB_nwN_8mVw,Maiella,https://www.yelp.com/biz/maiella-long-island-city?adjust_creative=mOvLaDpE4mdRLtHvvM6tbw&utm_campaign=yelp_api_v3&utm_medium=api_v3_business_search&utm_source=mOvLaDpE4mdRLtHvvM6tbw,943,4.0,40.7470416595732,-73.95657900243499,"['4610 Center Blvd', 'Long Island City, NY 11109']",Long Island City,NY,11109,"[{'alias': 'italian', 'title': 'Italian'}, {'alias': 'seafood', 'title': 'Seafood'}, {'alias': 'cocktailbars', 'title': 'Cocktail Bars'}]"
qgY41g_eg0eNzewCXmKcaA,Lillo Cucina Italiana,https://www.yelp.com/biz/lillo-cucina-italiana-brooklyn?adjust_creative=mOvLaDpE4mdRLtHvvM6tbw&utm_campaign=yelp_api_v3&utm_medium=api_v3_business_search&utm_source=mOvLaDpE4mdRLtHvvM6tbw,142,5.0,40.69023,-73.99634,"['331 Henry St', 'Brooklyn, NY 11201']",Brooklyn,NY,11201,"[{'alias': 'cafes', 'title': 'Cafes'}, {'alias': 'italian', 'title': 'Italian'}]"
_0WFGjXuenlBixOlbSlGeQ,Crown Shy,https://www.yelp.com/biz/crown-shy-new-york-2?adjust_creative=mOvLaDpE4mdRLtHvvM6tbw&utm_campaign=yelp_api_v3&utm_medium=api_v3_business_search&utm_source=mOvLaDpE4mdRLtHvvM6tbw,289,4.0,40.7063449,-74.0076944,"['70 Pine St', 'New York, NY 10005']",New York,NY,10005,"[{'alias': 'newamerican', 'title': 'American (New)'}, {'alias': 'cocktailbars', 'title': 'Cocktail Bars'}]"
4KAuDEIeLXcTfSv2lbEmNw,Huli Huli Hawaiian Rotisserie,https://www.yelp.com/biz/huli-huli-hawaiian-rotisserie-new-york?adjust_creative=mOvLaDpE4mdRLtHvvM6tbw&utm_campaign=yelp_api_v3&utm_medium=api_v3_business_search&utm_source=mOvLaDpE4mdRLtHvvM6tbw,22,4.5,40.754907,-73.989615,"['231 W 39th St', 'New York, NY 10018']",New York,NY,10018,"[{'alias': 'hawaiian', 'title': 'Hawaiian'}]"
V7lXZKBDzScDeGB8JmnzSA,Katz's Delicatessen,https://www.yelp.com/biz/katzs-delicatessen-new-york?adjust_creative=mOvLaDpE4mdRLtHvvM6tbw&utm_campaign=yelp_api_v3&utm_medium=api_v3_business_search&utm_source=mOvLaDpE4mdRLtHvvM6tbw,12436,4.0,40.722237,-73.98752590000001,"['205 E Houston St', 'New York, NY 10002']",New York,NY,10002,"[{'alias': 'delis', 'title': 'Delis'}, {'alias': 'sandwiches', 'title': 'Sandwiches'}, {'alias': 'soup', 'title': 'Soup'}]"
b8J-hvOyE9D7fc0sFJ8HUA,Surfish Bistro,https://www.yelp.com/biz/surfish-bistro-brooklyn-3?adjust_creative=mOvLaDpE4mdRLtHvvM6tbw&utm_campaign=yelp_api_v3&utm_medium=api_v3_business_search&utm_source=mOvLaDpE4mdRLtHvvM6tbw,336,4.0,40.668700799999996,-73.9936051,"['550 3rd Ave', 'Brooklyn, NY 11215']",Brooklyn,NY,11215,"[{'alias': 'latin', 'title': 'Latin American'}, {'alias': 'peruvian', 'title': 'Peruvian'}]"
ExvoimQ4LzY3UWtZ6m6Lgw,Ravagh Persian Grill,https://www.yelp.com/biz/ravagh-persian-grill-new-york-2?adjust_creative=mOvLaDpE4mdRLtHvvM6tbw&utm_campaign=yelp_api_v3&utm_medium=api_v3_business_search&utm_source=mOvLaDpE4mdRLtHvvM6tbw,782,4.0,40.74573,-73.98543000000001,"['11 E 30th St', 'New York, NY 10016']",New York,NY,10016,"[{'alias': 'mideastern', 'title': 'Middle Eastern'}, {'alias': 'persian', 'title': 'Persian/Iranian'}, {'alias': 'mediterranean', 'title': 'Mediterranean'}]"
ZCAkVl5SeCDeBWg_xjfYeg,Clay Pot - East Village,https://www.yelp.com/biz/clay-pot-east-village-new-york-2?adjust_creative=mOvLaDpE4mdRLtHvvM6tbw&utm_campaign=yelp_api_v3&utm_medium=api_v3_business_search&utm_source=mOvLaDpE4mdRLtHvvM6tbw,318,4.5,40.7279880270274,-73.9865907985248,"[""58 St Mark's Pl"", 'New York, NY 10003']",New York,NY,10003,"[{'alias': 'chinese', 'title': 'Chinese'}]"
diz6_4TVSP6EdWEZCZ0Acg,Kaoru,https://www.yelp.com/biz/kaoru-new-york?adjust_creative=mOvLaDpE4mdRLtHvvM6tbw&utm_campaign=yelp_api_v3&utm_medium=api_v3_business_search&utm_source=mOvLaDpE4mdRLtHvvM6tbw,358,4.5,40.75202,-73.96977,"['306 E 46th St', 'New York, NY 10017']",New York,NY,10017,"[{'alias': 'japanese', 'title': 'Japanese'}]"
kp5HpNxyJQGY13VDN-Yq9Q,Qanoon,https://www.yelp.com/biz/qanoon-new-york-3?adjust_creative=mOvLaDpE4mdRLtHvvM6tbw&utm_campaign=yelp_api_v3&utm_medium=api_v3_business_search&utm_source=mOvLaDpE4mdRLtHvvM6tbw,70,4.0,40.74524,-74.00202,"['180 9th Ave', 'New York, NY 10011']",New York,NY,10011,"[{'alias': 'mideastern', 'title': 'Middle Eastern'}, {'alias': 'mediterranean', 'title': 'Mediterranean'}, {'alias': 'sandwiches', 'title': 'Sandwiches'}]"
5V4cUVikPN8ALWXBVdjltw,Mariella,https://www.yelp.com/biz/mariella-brooklyn?adjust_creative=mOvLaDpE4mdRLtHvvM6tbw&utm_campaign=yelp_api_v3&utm_medium=api_v3_business_search&utm_source=mOvLaDpE4mdRLtHvvM6tbw,338,4.5,40.6662419,-73.985749,"['492 6th Ave', 'Brooklyn, NY 11215']",Brooklyn,NY,11215,"[{'alias': 'italian', 'title': 'Italian'}, {'alias': 'gluten_free', 'title': 'Gluten-Free'}, {'alias': 'salad', 'title': 'Salad'}]"
VpEy7E9fij06n7BRrzvEaw,Le Crocodile,https://www.yelp.com/biz/le-crocodile-brooklyn?adjust_creative=mOvLaDpE4mdRLtHvvM6tbw&utm_campaign=yelp_api_v3&utm_medium=api_v3_business_search&utm_source=mOvLaDpE4mdRLtHvvM6tbw,50,4.5,40.72191,-73.95787299999999,"['80 Wythe Ave', 'Brooklyn, NY 11249']",Brooklyn,NY,11249,"[{'alias': 'french', 'title': 'French'}, {'alias': 'wine_bars', 'title': 'Wine Bars'}, {'alias': 'cocktailbars', 'title': 'Cocktail Bars'}]"
igcUHNvsKc-s-RtvUmkg2w,K'OOK,https://www.yelp.com/biz/kook-new-york?adjust_creative=mOvLaDpE4mdRLtHvvM6tbw&utm_campaign=yelp_api_v3&utm_medium=api_v3_business_search&utm_source=mOvLaDpE4mdRLtHvvM6tbw,439,4.0,40.726820000000004,-73.98738,"['324 E 6th St', 'New York, NY 10003']",New York,NY,10003,"[{'alias': 'korean', 'title': 'Korean'}]"
a8D87UlkkR3HixryrAay9w,Coco Bistro,https://www.yelp.com/biz/coco-bistro-peck-slip?adjust_creative=mOvLaDpE4mdRLtHvvM6tbw&utm_campaign=yelp_api_v3&utm_medium=api_v3_business_search&utm_source=mOvLaDpE4mdRLtHvvM6tbw,77,4.5,40.707570000000004,-74.00184,"['233-235 Front St', 'Peck Slip, NY 10038']",Peck Slip,NY,10038,"[{'alias': 'french', 'title': 'French'}, {'alias': 'wine_bars', 'title': 'Wine Bars'}, {'alias': 'cocktailbars', 'title': 'Cocktail Bars'}]"
BXiX5-ce4NNxsw7eUDZeOg,Giovanni's Brooklyn Eats,https://www.yelp.com/biz/giovannis-brooklyn-eats-brooklyn-2?adjust_creative=mOvLaDpE4mdRLtHvvM6tbw&utm_campaign=yelp_api_v3&utm_medium=api_v3_business_search&utm_source=mOvLaDpE4mdRLtHvvM6tbw,464,4.0,40.660110499999995,-73.9835205,"['1657 8th Ave', 'Brooklyn, NY 11215']",Brooklyn,NY,11215,"[{'alias': 'italian', 'title': 'Italian'}]"
pGYovGGnxm0tMmkiQJPygA,Ume Williamsburg,https://www.yelp.com/biz/ume-williamsburg-brooklyn?adjust_creative=mOvLaDpE4mdRLtHvvM6tbw&utm_campaign=yelp_api_v3&utm_medium=api_v3_business_search&utm_source=mOvLaDpE4mdRLtHvvM6tbw,173,4.0,40.716570000000004,-73.96559,"['237 Kent Ave', 'Brooklyn, NY 11249']",Brooklyn,NY,11249,"[{'alias': 'sushi', 'title': 'Sushi Bars'}]"
xRiLLXjeM2wOvVTYJH2__A,Barboncino Pizza & Bar,https://www.yelp.com/biz/barboncino-pizza-and-bar-brooklyn-2?adjust_creative=mOvLaDpE4mdRLtHvvM6tbw&utm_campaign=yelp_api_v3&utm_medium=api_v3_business_search&utm_source=mOvLaDpE4mdRLtHvvM6tbw,973,4.0,40.672059999999995,-73.95716999999999,"['781 Franklin Ave', 'Brooklyn, NY 11238']",Brooklyn,NY,11238,"[{'alias': 'pizza', 'title': 'Pizza'}, {'alias': 'bars', 'title': 'Bars'}, {'alias': 'italian', 'title': 'Italian'}]"
r7z65v8cnBP0MhGP4oQ0bQ,Oda House,https://www.yelp.com/biz/oda-house-new-york-3?adjust_creative=mOvLaDpE4mdRLtHvvM6tbw&utm_campaign=yelp_api_v3&utm_medium=api_v3_business_search&utm_source=mOvLaDpE4mdRLtHvvM6tbw,94,4.0,40.768084,-73.95497900000001,"['406 E 73rd St', 'New York, NY 10021']",New York,NY,10021,"[{'alias': 'georgian', 'title': 'Georgian'}, {'alias': 'wine_bars', 'title': 'Wine Bars'}]"
CKDJ5EnccjRvvVF3csTn6Q,Balaboosta,https://www.yelp.com/biz/balaboosta-new-york-3?adjust_creative=mOvLaDpE4mdRLtHvvM6tbw&utm_campaign=yelp_api_v3&utm_medium=api_v3_business_search&utm_source=mOvLaDpE4mdRLtHvvM6tbw,62,4.0,40.73769,-74.00584,"['611 Hudson St', 'New York, NY 10014']",New York,NY,10014,"[{'alias': 'mediterranean', 'title': 'Mediterranean'}, {'alias': 'mideastern', 'title': 'Middle Eastern'}]"
VDz9n7gwcq51wOAbTBdXxA,The Food Sermon Kitchen,https://www.yelp.com/biz/the-food-sermon-kitchen-brooklyn-2?adjust_creative=mOvLaDpE4mdRLtHvvM6tbw&utm_campaign=yelp_api_v3&utm_medium=api_v3_business_search&utm_source=mOvLaDpE4mdRLtHvvM6tbw,265,4.5,40.6985551,-73.97120290000001,"['141 Flushing Ave', 'Bldg 77 Unit 108', 'The Brooklyn Navy Yard', 'Brooklyn, NY 11205']",Brooklyn,NY,11205,"[{'alias': 'caribbean', 'title': 'Caribbean'}]"
apykLG7DTZ-7xnOcZGDZZA,Taverna Kyclades - East Village,https://www.yelp.com/biz/taverna-kyclades-east-village-new-york-2?adjust_creative=mOvLaDpE4mdRLtHvvM6tbw&utm_campaign=yelp_api_v3&utm_medium=api_v3_business_search&utm_source=mOvLaDpE4mdRLtHvvM6tbw,835,4.0,40.7310782469639,-73.9825163036585,"['228 1st Ave', 'New York, NY 10009']",New York,NY,10009,"[{'alias': 'greek', 'title': 'Greek'}, {'alias': 'seafood', 'title': 'Seafood'}, {'alias': 'mediterranean', 'title': 'Mediterranean'}]"
1xJV03v3g3oP3G5oDlWuoQ,Di An Di,https://www.yelp.com/biz/di-an-di-brooklyn-2?adjust_creative=mOvLaDpE4mdRLtHvvM6tbw&utm_campaign=yelp_api_v3&utm_medium=api_v3_business_search&utm_source=mOvLaDpE4mdRLtHvvM6tbw,187,4.0,40.729690000000005,-73.95827,"['68 Greenpoint Ave', 'Ground Fl', 'Brooklyn, NY 11222']",Brooklyn,NY,11222,"[{'alias': 'vietnamese', 'title': 'Vietnamese'}, {'alias': 'cocktailbars', 'title': 'Cocktail Bars'}]"
zXCGF0XtqjOv1s4DUHOtqg,Hart's Restaurant,https://www.yelp.com/biz/harts-restaurant-brooklyn-2?adjust_creative=mOvLaDpE4mdRLtHvvM6tbw&utm_campaign=yelp_api_v3&utm_medium=api_v3_business_search&utm_source=mOvLaDpE4mdRLtHvvM6tbw,93,4.0,40.681458,-73.955893,"['506 Franklin Ave', 'Brooklyn, NY 11238']",Brooklyn,NY,11238,"[{'alias': 'newamerican', 'title': 'American (New)'}]"
mlGfXoxc8cEss8Yms6VrXg,Fette Sau,https://www.yelp.com/biz/fette-sau-brooklyn?adjust_creative=mOvLaDpE4mdRLtHvvM6tbw&utm_campaign=yelp_api_v3&utm_medium=api_v3_business_search&utm_source=mOvLaDpE4mdRLtHvvM6tbw,2259,4.0,40.714065999999995,-73.956327,"['354 Metropolitan Ave', 'Brooklyn, NY 11211']",Brooklyn,NY,11211,"[{'alias': 'bbq', 'title': 'Barbeque'}, {'alias': 'cocktailbars', 'title': 'Cocktail Bars'}]"
e5wK3I_THzF4Ce_OgoSCQw,MOKYO,https://www.yelp.com/biz/mokyo-new-york-2?adjust_creative=mOvLaDpE4mdRLtHvvM6tbw&utm_campaign=yelp_api_v3&utm_medium=api_v3_business_search&utm_source=mOvLaDpE4mdRLtHvvM6tbw,56,4.5,40.727222999999995,-73.983878,"['109 St Marks Pl', 'New York, NY 10009']",New York,NY,10009,"[{'alias': 'korean', 'title': 'Korean'}, {'alias': 'tapasmallplates', 'title': 'Tapas/Small Plates'}, {'alias': 'asianfusion', 'title': 'Asian Fusion'}]"
zQkjDxo8oDVGVj9cpTpUig,Habana Outpost,https://www.yelp.com/biz/habana-outpost-brooklyn?adjust_creative=mOvLaDpE4mdRLtHvvM6tbw&utm_campaign=yelp_api_v3&utm_medium=api_v3_business_search&utm_source=mOvLaDpE4mdRLtHvvM6tbw,1008,4.0,40.68645,-73.97416,"['757 Fulton St', 'Brooklyn, NY 11217']",Brooklyn,NY,11217,"[{'alias': 'cuban', 'title': 'Cuban'}]"
V58g7E1AHkuTchTVyLQuYQ,Saigon Grill & Bar,https://www.yelp.com/biz/saigon-grill-and-bar-brooklyn-3?adjust_creative=mOvLaDpE4mdRLtHvvM6tbw&utm_campaign=yelp_api_v3&utm_medium=api_v3_business_search&utm_source=mOvLaDpE4mdRLtHvvM6tbw,222,4.5,40.618829999999996,-73.93099000000001,"['4521 Ave N', 'Brooklyn, NY 11234']",Brooklyn,NY,11234,"[{'alias': 'vietnamese', 'title': 'Vietnamese'}, {'alias': 'asianfusion', 'title': 'Asian Fusion'}]"
liZmIO0FqZwslLJfLDkfgw,Wayla,https://www.yelp.com/biz/wayla-new-york?adjust_creative=mOvLaDpE4mdRLtHvvM6tbw&utm_campaign=yelp_api_v3&utm_medium=api_v3_business_search&utm_source=mOvLaDpE4mdRLtHvvM6tbw,280,4.5,40.7183,-73.9926038,"['100 Forsyth St', 'Basement', 'New York, NY 10002']",New York,NY,10002,"[{'alias': 'thai', 'title': 'Thai'}]"
kXnwXZ5KOQmprxNrmXYuxg,Puerto Viejo,https://www.yelp.com/biz/puerto-viejo-brooklyn?adjust_creative=mOvLaDpE4mdRLtHvvM6tbw&utm_campaign=yelp_api_v3&utm_medium=api_v3_business_search&utm_source=mOvLaDpE4mdRLtHvvM6tbw,471,4.0,40.67885,-73.96214,"['564 Grand Ave', 'Brooklyn, NY 11238']",Brooklyn,NY,11238,"[{'alias': 'dominican', 'title': 'Dominican'}]"
8uuMkezIN1c8zGEWkaMRqg,Los Tacos No. 1,https://www.yelp.com/biz/los-tacos-no-1-new-york-5?adjust_creative=mOvLaDpE4mdRLtHvvM6tbw&utm_campaign=yelp_api_v3&utm_medium=api_v3_business_search&utm_source=mOvLaDpE4mdRLtHvvM6tbw,173,4.5,40.714282,-74.008675,"['136 Church St', 'New York, NY 10007']",New York,NY,10007,"[{'alias': 'tacos', 'title': 'Tacos'}]"
R8Vfaytsa1yQ9L5HNmA49g,L'Wren,https://www.yelp.com/biz/l-wren-brooklyn-3?adjust_creative=mOvLaDpE4mdRLtHvvM6tbw&utm_campaign=yelp_api_v3&utm_medium=api_v3_business_search&utm_source=mOvLaDpE4mdRLtHvvM6tbw,40,5.0,40.65065,-74.00476,"['4004 5th Ave', 'Brooklyn, NY 11232']",Brooklyn,NY,11232,"[{'alias': 'cocktailbars', 'title': 'Cocktail Bars'}, {'alias': 'tapasmallplates', 'title': 'Tapas/Small Plates'}]"
LOZ0SaAh2uAMkRD47j6bhQ,Wakuwaku,https://www.yelp.com/biz/wakuwaku-brooklyn?adjust_creative=mOvLaDpE4mdRLtHvvM6tbw&utm_campaign=yelp_api_v3&utm_medium=api_v3_business_search&utm_source=mOvLaDpE4mdRLtHvvM6tbw,4,5.0,40.6559047,-74.00677540000001,"['269 36th St', 'Brooklyn, NY 11232']",Brooklyn,NY,11232,"[{'alias': 'izakaya', 'title': 'Izakaya'}]"
MtcgW0RCTm44PuA-HAq49g,Santiago's Beer Garden,https://www.yelp.com/biz/santiagos-beer-garden-new-york?adjust_creative=mOvLaDpE4mdRLtHvvM6tbw&utm_campaign=yelp_api_v3&utm_medium=api_v3_business_search&utm_source=mOvLaDpE4mdRLtHvvM6tbw,265,4.5,40.79849,-73.93382,"['2337 1st Ave', 'New York, NY 10035']",New York,NY,10035,"[{'alias': 'dominican', 'title': 'Dominican'}, {'alias': 'beergardens', 'title': 'Beer Gardens'}, {'alias': 'comfortfood', 'title': 'Comfort Food'}]"
2UxAkvKkkWNwqZi9H0OzWw,Dian Kitchen,https://www.yelp.com/biz/dian-kitchen-new-york-2?adjust_creative=mOvLaDpE4mdRLtHvvM6tbw&utm_campaign=yelp_api_v3&utm_medium=api_v3_business_search&utm_source=mOvLaDpE4mdRLtHvvM6tbw,227,5.0,40.72772,-73.98321,"['435 E 9th St', 'New York, NY 10009']",New York,NY,10009,"[{'alias': 'chinese', 'title': 'Chinese'}, {'alias': 'noodles', 'title': 'Noodles'}]"
MhceeLrM2_3mcKw5EGLY6A,Pure Thai Cookhouse,https://www.yelp.com/biz/pure-thai-cookhouse-new-york?adjust_creative=mOvLaDpE4mdRLtHvvM6tbw&utm_campaign=yelp_api_v3&utm_medium=api_v3_business_search&utm_source=mOvLaDpE4mdRLtHvvM6tbw,2549,4.0,40.764291,-73.988159,"['766 9th Ave', 'New York, NY 10019']",New York,NY,10019,"[{'alias': 'thai', 'title': 'Thai'}, {'alias': 'noodles', 'title': 'Noodles'}, {'alias': 'chicken_wings', 'title': 'Chicken Wings'}]"
HiNUBUR1hFwScd_OvVLQAg,La Pecora Bianca,https://www.yelp.com/biz/la-pecora-bianca-new-york?adjust_creative=mOvLaDpE4mdRLtHvvM6tbw&utm_campaign=yelp_api_v3&utm_medium=api_v3_business_search&utm_source=mOvLaDpE4mdRLtHvvM6tbw,604,4.0,40.74358,-73.9892,"['1133 Broadway', 'New York, NY 10010']",New York,NY,10010,"[{'alias': 'italian', 'title': 'Italian'}]"
NOh24SMS6k4pzNv8Ds7KDg,Cafe Habana,https://www.yelp.com/biz/cafe-habana-new-york-4?adjust_creative=mOvLaDpE4mdRLtHvvM6tbw&utm_campaign=yelp_api_v3&utm_medium=api_v3_business_search&utm_source=mOvLaDpE4mdRLtHvvM6tbw,3154,4.0,40.722998,-73.994171,"['17 Prince St', 'New York, NY 10012']",New York,NY,10012,"[{'alias': 'cuban', 'title': 'Cuban'}, {'alias': 'mexican', 'title': 'Mexican'}]"
P0OilvtjGnUQgf7hFzEgcg,Mad For Chicken Williamsburg,https://www.yelp.com/biz/mad-for-chicken-williamsburg-brooklyn?adjust_creative=mOvLaDpE4mdRLtHvvM6tbw&utm_campaign=yelp_api_v3&utm_medium=api_v3_business_search&utm_source=mOvLaDpE4mdRLtHvvM6tbw,120,4.5,40.711420000000004,-73.94751,"['617 Grand St', 'Brooklyn, NY 11211']",Brooklyn,NY,11211,"[{'alias': 'chicken_wings', 'title': 'Chicken Wings'}, {'alias': 'gastropubs', 'title': 'Gastropubs'}, {'alias': 'korean', 'title': 'Korean'}]"
BZcG-xN3DCxlfhckBZYeuw,Pio Pio 7,https://www.yelp.com/biz/pio-pio-7-new-york-5?adjust_creative=mOvLaDpE4mdRLtHvvM6tbw&utm_campaign=yelp_api_v3&utm_medium=api_v3_business_search&utm_source=mOvLaDpE4mdRLtHvvM6tbw,826,4.0,40.74534,-73.97761,"['210 E 34th St', 'New York, NY 10016']",New York,NY,10016,"[{'alias': 'latin', 'title': 'Latin American'}, {'alias': 'peruvian', 'title': 'Peruvian'}]"
FCms-eFFxnpMLm09AJridQ,Peaches Shrimp and Crab,https://www.yelp.com/biz/peaches-shrimp-and-crab-brooklyn-4?adjust_creative=mOvLaDpE4mdRLtHvvM6tbw&utm_campaign=yelp_api_v3&utm_medium=api_v3_business_search&utm_source=mOvLaDpE4mdRLtHvvM6tbw,320,4.0,40.6879838,-73.9625478,"['285 Grand Ave', 'Brooklyn, NY 11238']",Brooklyn,NY,11238,"[{'alias': 'seafood', 'title': 'Seafood'}, {'alias': 'newamerican', 'title': 'American (New)'}, {'alias': 'southern', 'title': 'Southern'}]"
bZQryeTD6hIsT6lSUxzSSw,Hanoi House,https://www.yelp.com/biz/hanoi-house-new-york?adjust_creative=mOvLaDpE4mdRLtHvvM6tbw&utm_campaign=yelp_api_v3&utm_medium=api_v3_business_search&utm_source=mOvLaDpE4mdRLtHvvM6tbw,516,4.0,40.727066,-73.98350500000001,"['119 Saint Marks Pl', 'New York, NY 10009']",New York,NY,10009,"[{'alias': 'vietnamese', 'title': 'Vietnamese'}]"
sHVnV3l2_mQefULh0mvwUA,The Woo,https://www.yelp.com/biz/the-woo-new-york-2?adjust_creative=mOvLaDpE4mdRLtHvvM6tbw&utm_campaign=yelp_api_v3&utm_medium=api_v3_business_search&utm_source=mOvLaDpE4mdRLtHvvM6tbw,96,4.0,40.7253,-74.00371,"['206 Spring St', 'New York, NY 10012']",New York,NY,10012,"[{'alias': 'korean', 'title': 'Korean'}, {'alias': 'bbq', 'title': 'Barbeque'}]"
sQw7aEos_0FmO0UFtrJokg,Clay Pot - West Village,https://www.yelp.com/biz/clay-pot-west-village-new-york-2?adjust_creative=mOvLaDpE4mdRLtHvvM6tbw&utm_campaign=yelp_api_v3&utm_medium=api_v3_business_search&utm_source=mOvLaDpE4mdRLtHvvM6tbw,89,4.5,40.73138,-74.00319,"['270 Bleeker St', 'New York, NY 10014']",New York,NY,10014,"[{'alias': 'chinese', 'title': 'Chinese'}]"
pGr5QuQU7Ur5GHLvXbT8bw,Paulie Gee's,https://www.yelp.com/biz/paulie-gees-brooklyn?adjust_creative=mOvLaDpE4mdRLtHvvM6tbw&utm_campaign=yelp_api_v3&utm_medium=api_v3_business_search&utm_source=mOvLaDpE4mdRLtHvvM6tbw,1255,4.5,40.729546,-73.958568,"['60 Greenpoint Ave', 'Brooklyn, NY 11222']",Brooklyn,NY,11222,"[{'alias': 'pizza', 'title': 'Pizza'}, {'alias': 'vegan', 'title': 'Vegan'}, {'alias': 'italian', 'title': 'Italian'}]"
UKy0nNjMkOBEU3dOCH831w,Cuba Restaurant and Rum Bar,https://www.yelp.com/biz/cuba-restaurant-and-rum-bar-new-york?adjust_creative=mOvLaDpE4mdRLtHvvM6tbw&utm_campaign=yelp_api_v3&utm_medium=api_v3_business_search&utm_source=mOvLaDpE4mdRLtHvvM6tbw,1558,4.0,40.729084,-73.998832,"['222 Thompson St', 'New York, NY 10012']",New York,NY,10012,"[{'alias': 'cuban', 'title': 'Cuban'}]"
l_gQf_4NgPMJcx2OkjsMfg,Noods n’ Chill,https://www.yelp.com/biz/noods-n-chill-brooklyn?adjust_creative=mOvLaDpE4mdRLtHvvM6tbw&utm_campaign=yelp_api_v3&utm_medium=api_v3_business_search&utm_source=mOvLaDpE4mdRLtHvvM6tbw,67,4.0,40.711940000000006,-73.96121,"['170 S 3rd St', 'Brooklyn, NY 11211']",Brooklyn,NY,11211,"[{'alias': 'thai', 'title': 'Thai'}]"
6eVNHrnp67ZniJYLik1qig,Yara,https://www.yelp.com/biz/yara-new-york-2?adjust_creative=mOvLaDpE4mdRLtHvvM6tbw&utm_campaign=yelp_api_v3&utm_medium=api_v3_business_search&utm_source=mOvLaDpE4mdRLtHvvM6tbw,122,4.5,40.75646,-73.9662,"['319 E 53rd St', 'New York, NY 10022']",New York,NY,10022,"[{'alias': 'lebanese', 'title': 'Lebanese'}, {'alias': 'mediterranean', 'title': 'Mediterranean'}, {'alias': 'catering', 'title': 'Caterers'}]"
ryvBsB9FrBBZDak87iGS1w,The Sea Fire Grill,https://www.yelp.com/biz/the-sea-fire-grill-new-york-5?adjust_creative=mOvLaDpE4mdRLtHvvM6tbw&utm_campaign=yelp_api_v3&utm_medium=api_v3_business_search&utm_source=mOvLaDpE4mdRLtHvvM6tbw,1281,4.5,40.7547012104496,-73.972255513072,"['158 E 48th St', 'New York, NY 10017']",New York,NY,10017,"[{'alias': 'seafood', 'title': 'Seafood'}, {'alias': 'steak', 'title': 'Steakhouses'}, {'alias': 'salad', 'title': 'Salad'}]"
xLJnT-pB4VECJzmUf1Whpg,3 Times 茅庐,https://www.yelp.com/biz/3-times-%E8%8C%85%E5%BA%90-new-york-4?adjust_creative=mOvLaDpE4mdRLtHvvM6tbw&utm_campaign=yelp_api_v3&utm_medium=api_v3_business_search&utm_source=mOvLaDpE4mdRLtHvvM6tbw,57,4.0,40.718271,-73.985209,"['90 Clinton St', 'New York, NY 10002']",New York,NY,10002,"[{'alias': 'dimsum', 'title': 'Dim Sum'}, {'alias': 'shanghainese', 'title': 'Shanghainese'}]"
KJFosOrLotvQo_rntg0sjA,Bricolage,https://www.yelp.com/biz/bricolage-brooklyn?adjust_creative=mOvLaDpE4mdRLtHvvM6tbw&utm_campaign=yelp_api_v3&utm_medium=api_v3_business_search&utm_source=mOvLaDpE4mdRLtHvvM6tbw,501,4.0,40.67792,-73.97975,"['162 5th Ave', 'Brooklyn, NY 11217']",Brooklyn,NY,11217,"[{'alias': 'vietnamese', 'title': 'Vietnamese'}, {'alias': 'gastropubs', 'title': 'Gastropubs'}, {'alias': 'cocktailbars', 'title': 'Cocktail Bars'}]"
BYnd0Kbkrjhz0CGKMF1lqg,Modern Love Brooklyn,https://www.yelp.com/biz/modern-love-brooklyn-brooklyn-2?adjust_creative=mOvLaDpE4mdRLtHvvM6tbw&utm_campaign=yelp_api_v3&utm_medium=api_v3_business_search&utm_source=mOvLaDpE4mdRLtHvvM6tbw,519,4.5,40.70983,-73.95109000000001,"['317 Union Ave', 'Brooklyn, NY 11211']",Brooklyn,NY,11211,"[{'alias': 'vegan', 'title': 'Vegan'}, {'alias': 'cocktailbars', 'title': 'Cocktail Bars'}, {'alias': 'tradamerican', 'title': 'American (Traditional)'}]"
20LSOx_4K2wghTsUx4gSsg,Oceanic Boil,https://www.yelp.com/biz/oceanic-boil-jackson-heights?adjust_creative=mOvLaDpE4mdRLtHvvM6tbw&utm_campaign=yelp_api_v3&utm_medium=api_v3_business_search&utm_source=mOvLaDpE4mdRLtHvvM6tbw,598,4.5,40.7498297,-73.8821356,"['84-20 37th Ave', 'Jackson Heights, NY 11372']",Jackson Heights,NY,11372,"[{'alias': 'cajun', 'title': 'Cajun/Creole'}, {'alias': 'seafood', 'title': 'Seafood'}, {'alias': 'bars', 'title': 'Bars'}]"
6gDUVNZo0E9lxO2DkAhHOQ,The Greek,https://www.yelp.com/biz/the-greek-new-york?adjust_creative=mOvLaDpE4mdRLtHvvM6tbw&utm_campaign=yelp_api_v3&utm_medium=api_v3_business_search&utm_source=mOvLaDpE4mdRLtHvvM6tbw,484,4.5,40.7237145,-74.0096166,"['458 Greenwich St', 'New York, NY 10013']",New York,NY,10013,"[{'alias': 'greek', 'title': 'Greek'}, {'alias': 'mediterranean', 'title': 'Mediterranean'}, {'alias': 'cocktailbars', 'title': 'Cocktail Bars'}]"
ZjU9qd-RR55cEEKufmdN5Q,Cathédrale Restaurant,https://www.yelp.com/biz/cath%C3%A9drale-restaurant-new-york-2?adjust_creative=mOvLaDpE4mdRLtHvvM6tbw&utm_campaign=yelp_api_v3&utm_medium=api_v3_business_search&utm_source=mOvLaDpE4mdRLtHvvM6tbw,140,4.0,40.7316,-73.98951,"['112 E 11th St', 'New York, NY 10003']",New York,NY,10003,"[{'alias': 'french', 'title': 'French'}, {'alias': 'mediterranean', 'title': 'Mediterranean'}]"
Lbs8QBRN1U7IYBo5Mcv-RQ,88 Lan Zhou Handmade Noodle,https://www.yelp.com/biz/88-lan-zhou-handmade-noodle-new-york?adjust_creative=mOvLaDpE4mdRLtHvvM6tbw&utm_campaign=yelp_api_v3&utm_medium=api_v3_business_search&utm_source=mOvLaDpE4mdRLtHvvM6tbw,1838,4.0,40.715503999999996,-73.996752,"['40 Bowery St', 'New York, NY 10013']",New York,NY,10013,"[{'alias': 'chinese', 'title': 'Chinese'}, {'alias': 'noodles', 'title': 'Noodles'}]"
6403iqg-_a-sdg-DrKEfhw,Birria-Landia,https://www.yelp.com/biz/birria-landia-jackson-heights?adjust_creative=mOvLaDpE4mdRLtHvvM6tbw&utm_campaign=yelp_api_v3&utm_medium=api_v3_business_search&utm_source=mOvLaDpE4mdRLtHvvM6tbw,223,4.5,40.747258,-73.887784,"['Roosevelt Ave & 78th St', 'Jackson Heights, NY 11372']",Jackson Heights,NY,11372,"[{'alias': 'foodtrucks', 'title': 'Food Trucks'}, {'alias': 'tacos', 'title': 'Tacos'}]"
mpD_kUFo8POQDLoLgRSfCg,SAGE,https://www.yelp.com/biz/sage-brooklyn?adjust_creative=mOvLaDpE4mdRLtHvvM6tbw&utm_campaign=yelp_api_v3&utm_medium=api_v3_business_search&utm_source=mOvLaDpE4mdRLtHvvM6tbw,594,3.5,40.712973600000005,-73.9442765,"['299-301 Graham Ave', 'Brooklyn, NY 11211']",Brooklyn,NY,11211,"[{'alias': 'thai', 'title': 'Thai'}]"
Dqp5Itsj9dN0Ewz8Gm853g,Philippe Downtown,https://www.yelp.com/biz/philippe-downtown-new-york?adjust_creative=mOvLaDpE4mdRLtHvvM6tbw&utm_campaign=yelp_api_v3&utm_medium=api_v3_business_search&utm_source=mOvLaDpE4mdRLtHvvM6tbw,97,4.0,40.742129999999996,-74.0038,"['355 W 16th St', 'New York, NY 10011']",New York,NY,10011,"[{'alias': 'chinese', 'title': 'Chinese'}]"
WIe7Qi3uOoMKU2ZbHfTGew,Mazzat,https://www.yelp.com/biz/mazzat-brooklyn?adjust_creative=mOvLaDpE4mdRLtHvvM6tbw&utm_campaign=yelp_api_v3&utm_medium=api_v3_business_search&utm_source=mOvLaDpE4mdRLtHvvM6tbw,191,4.5,40.684942,-74.003028,"['208 Columbia St', 'Brooklyn, NY 11231']",Brooklyn,NY,11231,"[{'alias': 'tapas', 'title': 'Tapas Bars'}, {'alias': 'mediterranean', 'title': 'Mediterranean'}, {'alias': 'mideastern', 'title': 'Middle Eastern'}]"
26E3j9l0XW_onVIUP-ThCw,Heidi's House By The Side Of The Road,https://www.yelp.com/biz/heidis-house-by-the-side-of-the-road-new-york-2?adjust_creative=mOvLaDpE4mdRLtHvvM6tbw&utm_campaign=yelp_api_v3&utm_medium=api_v3_business_search&utm_source=mOvLaDpE4mdRLtHvvM6tbw,621,4.5,40.772189000000004,-73.95502900000001,"['308 E 78th St', 'New York, NY 10075']",New York,NY,10075,"[{'alias': 'wine_bars', 'title': 'Wine Bars'}, {'alias': 'comfortfood', 'title': 'Comfort Food'}, {'alias': 'gluten_free', 'title': 'Gluten-Free'}]"
C8j0q4Ma_S5hBGuAI-aaww,Di Fara Pizza,https://www.yelp.com/biz/di-fara-pizza-brooklyn?adjust_creative=mOvLaDpE4mdRLtHvvM6tbw&utm_campaign=yelp_api_v3&utm_medium=api_v3_business_search&utm_source=mOvLaDpE4mdRLtHvvM6tbw,3531,4.0,40.625093,-73.96153100000001,"['1424 Ave J', 'Brooklyn, NY 11230']",Brooklyn,NY,11230,"[{'alias': 'pizza', 'title': 'Pizza'}]"
ojbH3wnRu050hRhkmoxRiA,Han Dynasty,https://www.yelp.com/biz/han-dynasty-new-york-4?adjust_creative=mOvLaDpE4mdRLtHvvM6tbw&utm_campaign=yelp_api_v3&utm_medium=api_v3_business_search&utm_source=mOvLaDpE4mdRLtHvvM6tbw,602,4.0,40.78752,-73.97646999999999,"['215 W 85th St', 'New York, NY 10024']",New York,NY,10024,"[{'alias': 'szechuan', 'title': 'Szechuan'}]"
QQpQujXQGbZBK6BeAokzDA,Pomp & Circumstance Dining,https://www.yelp.com/biz/pomp-and-circumstance-dining-williamsburg?adjust_creative=mOvLaDpE4mdRLtHvvM6tbw&utm_campaign=yelp_api_v3&utm_medium=api_v3_business_search&utm_source=mOvLaDpE4mdRLtHvvM6tbw,70,5.0,40.714166,-73.949612,"['577 Lorimer St', 'Williamsburg, NY 11211']",Williamsburg,NY,11211,"[{'alias': 'italian', 'title': 'Italian'}, {'alias': 'mediterranean', 'title': 'Mediterranean'}, {'alias': 'mideastern', 'title': 'Middle Eastern'}]"
uAy3zyNCmDPO0RpdGjEAdg,The Crabby Shack,https://www.yelp.com/biz/the-crabby-shack-brooklyn?adjust_creative=mOvLaDpE4mdRLtHvvM6tbw&utm_campaign=yelp_api_v3&utm_medium=api_v3_business_search&utm_source=mOvLaDpE4mdRLtHvvM6tbw,705,4.0,40.6772748759876,-73.9554135086263,"['613 Franklin Ave', 'Brooklyn, NY 11238']",Brooklyn,NY,11238,"[{'alias': 'seafood', 'title': 'Seafood'}, {'alias': 'desserts', 'title': 'Desserts'}]"
8SehQovJOuQDLbtzLLYLyw,RH Rooftop Restaurant New York,https://www.yelp.com/biz/rh-rooftop-restaurant-new-york-new-york-2?adjust_creative=mOvLaDpE4mdRLtHvvM6tbw&utm_campaign=yelp_api_v3&utm_medium=api_v3_business_search&utm_source=mOvLaDpE4mdRLtHvvM6tbw,335,4.0,40.73985,-74.00639,"['9 9th Ave', 'New York, NY 10014']",New York,NY,10014,"[{'alias': 'tradamerican', 'title': 'American (Traditional)'}, {'alias': 'wine_bars', 'title': 'Wine Bars'}]"
OwDRIugcA4LkUuTRqpJsog,Naked Dog,https://www.yelp.com/biz/naked-dog-greenpoint?adjust_creative=mOvLaDpE4mdRLtHvvM6tbw&utm_campaign=yelp_api_v3&utm_medium=api_v3_business_search&utm_source=mOvLaDpE4mdRLtHvvM6tbw,229,4.5,40.7312720665479,-73.9593493647979,"['47 Java St', 'Greenpoint, NY 11222']",Greenpoint,NY,11222,"[{'alias': 'italian', 'title': 'Italian'}, {'alias': 'wine_bars', 'title': 'Wine Bars'}, {'alias': 'cocktailbars', 'title': 'Cocktail Bars'}]"
f7jZvRH-h76F4emzvKytaQ,Tuk Tuk,https://www.yelp.com/biz/tuk-tuk-long-island-city?adjust_creative=mOvLaDpE4mdRLtHvvM6tbw&utm_campaign=yelp_api_v3&utm_medium=api_v3_business_search&utm_source=mOvLaDpE4mdRLtHvvM6tbw,692,4.0,40.743232,-73.954254,"['4906 Vernon Blvd', 'Long Island City, NY 11101']",Long Island City,NY,11101,"[{'alias': 'thai', 'title': 'Thai'}]"
qEe7nIhPfEL6L0-VYhWRrA,Raku,https://www.yelp.com/biz/raku-new-york-6?adjust_creative=mOvLaDpE4mdRLtHvvM6tbw&utm_campaign=yelp_api_v3&utm_medium=api_v3_business_search&utm_source=mOvLaDpE4mdRLtHvvM6tbw,404,4.5,40.72728,-74.00251999999999,"['48 Macdougal St', 'New York, NY 10012']",New York,NY,10012,"[{'alias': 'japanese', 'title': 'Japanese'}, {'alias': 'noodles', 'title': 'Noodles'}]"
NGcz0alNBJVnirAL-r8K9g,Hot N Juicy Crawfish,https://www.yelp.com/biz/hot-n-juicy-crawfish-new-york-3?adjust_creative=mOvLaDpE4mdRLtHvvM6tbw&utm_campaign=yelp_api_v3&utm_medium=api_v3_business_search&utm_source=mOvLaDpE4mdRLtHvvM6tbw,511,4.5,40.7395099255823,-74.0016006497376,"['243 W 14th St', 'New York, NY 10011']",New York,NY,10011,"[{'alias': 'cajun', 'title': 'Cajun/Creole'}, {'alias': 'seafood', 'title': 'Seafood'}]"
gG0pitVnSaUMGbEL3boF0g,Souvlaki GR,https://www.yelp.com/biz/souvlaki-gr-new-york-3?adjust_creative=mOvLaDpE4mdRLtHvvM6tbw&utm_campaign=yelp_api_v3&utm_medium=api_v3_business_search&utm_source=mOvLaDpE4mdRLtHvvM6tbw,889,4.0,40.721196,-73.98711800000001,"['116 Stanton St', 'New York, NY 10002']",New York,NY,10002,"[{'alias': 'greek', 'title': 'Greek'}]"
wA_KKu3X36JcaUPgFjyIHg,Glasserie,https://www.yelp.com/biz/glasserie-brooklyn-2?adjust_creative=mOvLaDpE4mdRLtHvvM6tbw&utm_campaign=yelp_api_v3&utm_medium=api_v3_business_search&utm_source=mOvLaDpE4mdRLtHvvM6tbw,363,4.0,40.737615399999996,-73.9560697,"['95 Commercial St', 'Brooklyn, NY 11222']",Brooklyn,NY,11222,"[{'alias': 'mediterranean', 'title': 'Mediterranean'}, {'alias': 'bars', 'title': 'Bars'}]"
_eC8r8yMhcmDL7PWmaNK9w,Brooklyn Crab,https://www.yelp.com/biz/brooklyn-crab-brooklyn?adjust_creative=mOvLaDpE4mdRLtHvvM6tbw&utm_campaign=yelp_api_v3&utm_medium=api_v3_business_search&utm_source=mOvLaDpE4mdRLtHvvM6tbw,1029,3.0,40.675264899999995,-74.016568,"['24 Reed St', 'Brooklyn, NY 11231']",Brooklyn,NY,11231,"[{'alias': 'seafood', 'title': 'Seafood'}, {'alias': 'bars', 'title': 'Bars'}, {'alias': 'raw_food', 'title': 'Live/Raw Food'}]"
eIbKiQuExi12NcGeqMzQAw,Baba's Pierogies,https://www.yelp.com/biz/babas-pierogies-brooklyn?adjust_creative=mOvLaDpE4mdRLtHvvM6tbw&utm_campaign=yelp_api_v3&utm_medium=api_v3_business_search&utm_source=mOvLaDpE4mdRLtHvvM6tbw,407,4.5,40.67687,-73.98633000000001,"['295 3rd Ave', 'Brooklyn, NY 11215']",Brooklyn,NY,11215,"[{'alias': 'modern_european', 'title': 'Modern European'}, {'alias': 'slovakian', 'title': 'Slovakian'}]"
nZ0Y8ngCxpY3xlz4f4pNTQ,Brooklyn Beet Company,https://www.yelp.com/biz/brooklyn-beet-company-brooklyn?adjust_creative=mOvLaDpE4mdRLtHvvM6tbw&utm_campaign=yelp_api_v3&utm_medium=api_v3_business_search&utm_source=mOvLaDpE4mdRLtHvvM6tbw,439,4.5,40.6333416,-74.02687409999999,"['7205 3rd Ave', 'Brooklyn, NY 11209']",Brooklyn,NY,11209,"[{'alias': 'modern_european', 'title': 'Modern European'}]"
tW8a8-MX_lVoshmKRLUuHQ,Caracas Arepa Bar,https://www.yelp.com/biz/caracas-arepa-bar-brooklyn?adjust_creative=mOvLaDpE4mdRLtHvvM6tbw&utm_campaign=yelp_api_v3&utm_medium=api_v3_business_search&utm_source=mOvLaDpE4mdRLtHvvM6tbw,826,4.0,40.713214,-73.957397,"['291 Grand St', 'Brooklyn, NY 11211']",Brooklyn,NY,11211,"[{'alias': 'venezuelan', 'title': 'Venezuelan'}]"
4zBGXDXg9DzK0IROwCUeFg,Cowgirl Seahorse,https://www.yelp.com/biz/cowgirl-seahorse-new-york-2?adjust_creative=mOvLaDpE4mdRLtHvvM6tbw&utm_campaign=yelp_api_v3&utm_medium=api_v3_business_search&utm_source=mOvLaDpE4mdRLtHvvM6tbw,588,4.0,40.708135799999994,-74.0004532,"['259 Front St', 'New York, NY 10038']",New York,NY,10038,"[{'alias': 'tex-mex', 'title': 'Tex-Mex'}, {'alias': 'seafood', 'title': 'Seafood'}, {'alias': 'southern', 'title': 'Southern'}]"
DiHm4iIAQhqMKfjsrBPvZw,Socarrat Paella Bar - Chelsea,https://www.yelp.com/biz/socarrat-paella-bar-chelsea-new-york-3?adjust_creative=mOvLaDpE4mdRLtHvvM6tbw&utm_campaign=yelp_api_v3&utm_medium=api_v3_business_search&utm_source=mOvLaDpE4mdRLtHvvM6tbw,1144,4.0,40.7426956,-73.9995488,"['259 W 19th St', 'New York, NY 10011']",New York,NY,10011,"[{'alias': 'spanish', 'title': 'Spanish'}, {'alias': 'tapas', 'title': 'Tapas Bars'}, {'alias': 'tapasmallplates', 'title': 'Tapas/Small Plates'}]"
SxKvgnkMMZdhBJcxxKQnww,Nobu Fifty Seven,https://www.yelp.com/biz/nobu-fifty-seven-new-york-2?adjust_creative=mOvLaDpE4mdRLtHvvM6tbw&utm_campaign=yelp_api_v3&utm_medium=api_v3_business_search&utm_source=mOvLaDpE4mdRLtHvvM6tbw,1211,4.0,40.7636210840864,-73.97650486136409,"['40 W 57th St', 'New York, NY 10019']",New York,NY,10019,"[{'alias': 'sushi', 'title': 'Sushi Bars'}, {'alias': 'japanese', 'title': 'Japanese'}, {'alias': 'asianfusion', 'title': 'Asian Fusion'}]"
SNhDVaf_n7VDZcfry8mYdA,The Bao,https://www.yelp.com/biz/the-bao-new-york?adjust_creative=mOvLaDpE4mdRLtHvvM6tbw&utm_campaign=yelp_api_v3&utm_medium=api_v3_business_search&utm_source=mOvLaDpE4mdRLtHvvM6tbw,1226,4.0,40.72939,-73.9889199,"['13 St Marks Pl', 'New York, NY 10003']",New York,NY,10003,"[{'alias': 'chinese', 'title': 'Chinese'}]"
YYMbXek5-Upj0g3RAjuI7A,Ousia,https://www.yelp.com/biz/ousia-new-york?adjust_creative=mOvLaDpE4mdRLtHvvM6tbw&utm_campaign=yelp_api_v3&utm_medium=api_v3_business_search&utm_source=mOvLaDpE4mdRLtHvvM6tbw,260,4.0,40.7707946574904,-73.992433445755,"['629 W 57th St', 'New York, NY 10019']",New York,NY,10019,"[{'alias': 'mediterranean', 'title': 'Mediterranean'}, {'alias': 'greek', 'title': 'Greek'}]"
2O--ayv2_mWrK-uDGA_PHA,Sakib,https://www.yelp.com/biz/sakib-new-york-2?adjust_creative=mOvLaDpE4mdRLtHvvM6tbw&utm_campaign=yelp_api_v3&utm_medium=api_v3_business_search&utm_source=mOvLaDpE4mdRLtHvvM6tbw,26,4.0,40.712022999999995,-73.96270200000001,"['349 Bedford Ave', 'New York, NY 11211']",New York,NY,11211,"[{'alias': 'mediterranean', 'title': 'Mediterranean'}]"
FsuJ7VC5vxX3wcLhFrb97Q,Oiji,https://www.yelp.com/biz/oiji-new-york?adjust_creative=mOvLaDpE4mdRLtHvvM6tbw&utm_campaign=yelp_api_v3&utm_medium=api_v3_business_search&utm_source=mOvLaDpE4mdRLtHvvM6tbw,509,4.5,40.727270000000004,-73.98585,"['119 1st Ave', 'New York, NY 10003']",New York,NY,10003,"[{'alias': 'korean', 'title': 'Korean'}]"
0ef3Q3RvIqfFzZoOfA2amg,Dinosaur Bar-B-Que,https://www.yelp.com/biz/dinosaur-bar-b-que-brooklyn?adjust_creative=mOvLaDpE4mdRLtHvvM6tbw&utm_campaign=yelp_api_v3&utm_medium=api_v3_business_search&utm_source=mOvLaDpE4mdRLtHvvM6tbw,1660,3.5,40.6776201,-73.9838929,"['604 Union St', 'Brooklyn, NY 11215']",Brooklyn,NY,11215,"[{'alias': 'bbq', 'title': 'Barbeque'}, {'alias': 'tradamerican', 'title': 'American (Traditional)'}]"
ax4INkzwL__-d_kGJfcA-w,Kaikagetsu NYC,https://www.yelp.com/biz/kaikagetsu-nyc-new-york-2?adjust_creative=mOvLaDpE4mdRLtHvvM6tbw&utm_campaign=yelp_api_v3&utm_medium=api_v3_business_search&utm_source=mOvLaDpE4mdRLtHvvM6tbw,78,4.5,40.72104,-73.98848000000001,"['162 Orchard St', 'New York, NY 10002']",New York,NY,10002,"[{'alias': 'japanese', 'title': 'Japanese'}]"
jnEv25Y2DosTq2sNnvmC9g,Los Tacos No.1,https://www.yelp.com/biz/los-tacos-no-1-new-york?adjust_creative=mOvLaDpE4mdRLtHvvM6tbw&utm_campaign=yelp_api_v3&utm_medium=api_v3_business_search&utm_source=mOvLaDpE4mdRLtHvvM6tbw,3022,4.5,40.7425547,-74.0060838,"['75 9th Ave', 'New York, NY 10011']",New York,NY,10011,"[{'alias': 'tacos', 'title': 'Tacos'}]"
VfT_M4kg0C9xFMDOa3Z8qw,Something  Good in Brooklyn,https://www.yelp.com/biz/something-good-in-brooklyn-brooklyn?adjust_creative=mOvLaDpE4mdRLtHvvM6tbw&utm_campaign=yelp_api_v3&utm_medium=api_v3_business_search&utm_source=mOvLaDpE4mdRLtHvvM6tbw,14,4.5,40.68891,-73.98334,"['25 Bond St', 'Brooklyn, NY 11201']",Brooklyn,NY,11201,"[{'alias': 'tradamerican', 'title': 'American (Traditional)'}, {'alias': 'comfortfood', 'title': 'Comfort Food'}, {'alias': 'beer_and_wine', 'title': 'Beer, Wine & Spirits'}]"
Q1TpfbuPwKPFrNFyu-u2_g,Han Dynasty,https://www.yelp.com/biz/han-dynasty-brooklyn-2?adjust_creative=mOvLaDpE4mdRLtHvvM6tbw&utm_campaign=yelp_api_v3&utm_medium=api_v3_business_search&utm_source=mOvLaDpE4mdRLtHvvM6tbw,277,4.0,40.691131961003606,-73.9825977757573,"['1 Dekalb Ave', 'Brooklyn, NY 11201']",Brooklyn,NY,11201,"[{'alias': 'chinese', 'title': 'Chinese'}]"
nm5rcWNmfevNXLNQAITi5w,Clinton Hall,https://www.yelp.com/biz/clinton-hall-new-york?adjust_creative=mOvLaDpE4mdRLtHvvM6tbw&utm_campaign=yelp_api_v3&utm_medium=api_v3_business_search&utm_source=mOvLaDpE4mdRLtHvvM6tbw,662,3.5,40.70803,-74.01486899999999,"['90 Washington St', 'New York, NY 10006']",New York,NY,10006,"[{'alias': 'bars', 'title': 'Bars'}, {'alias': 'newamerican', 'title': 'American (New)'}, {'alias': 'beergardens', 'title': 'Beer Gardens'}]"
l9b8NbDyhKhnjLKtUwlPwQ,Olea,https://www.yelp.com/biz/olea-brooklyn-2?adjust_creative=mOvLaDpE4mdRLtHvvM6tbw&utm_campaign=yelp_api_v3&utm_medium=api_v3_business_search&utm_source=mOvLaDpE4mdRLtHvvM6tbw,879,4.0,40.6877844,-73.9706046,"['171 Lafayette Ave', 'Brooklyn, NY 11238']",Brooklyn,NY,11238,"[{'alias': 'tapas', 'title': 'Tapas Bars'}, {'alias': 'breakfast_brunch', 'title': 'Breakfast & Brunch'}, {'alias': 'mediterranean', 'title': 'Mediterranean'}]"
OAqsZMbjv66nOMqlimnYuQ,Uva,https://www.yelp.com/biz/uva-new-york?adjust_creative=mOvLaDpE4mdRLtHvvM6tbw&utm_campaign=yelp_api_v3&utm_medium=api_v3_business_search&utm_source=mOvLaDpE4mdRLtHvvM6tbw,2400,4.0,40.7722,-73.95566,"['1486 2nd Ave', 'New York, NY 10075']",New York,NY,10075,"[{'alias': 'italian', 'title': 'Italian'}, {'alias': 'wine_bars', 'title': 'Wine Bars'}]"
f8ipr8Wdy1_wHhw7JgNqPQ,Da Claudio,https://www.yelp.com/biz/da-claudio-new-york?adjust_creative=mOvLaDpE4mdRLtHvvM6tbw&utm_campaign=yelp_api_v3&utm_medium=api_v3_business_search&utm_source=mOvLaDpE4mdRLtHvvM6tbw,482,4.5,40.71087,-74.00753,"['21 Ann St', 'New York, NY 10038']",New York,NY,10038,"[{'alias': 'italian', 'title': 'Italian'}, {'alias': 'cocktailbars', 'title': 'Cocktail Bars'}]"
_vQugjzPLr-4udYpiISieA,Gopchang Story BBQ,https://www.yelp.com/biz/gopchang-story-bbq-new-york?adjust_creative=mOvLaDpE4mdRLtHvvM6tbw&utm_campaign=yelp_api_v3&utm_medium=api_v3_business_search&utm_source=mOvLaDpE4mdRLtHvvM6tbw,371,4.0,40.747009999999996,-73.98583,"['312 5th Ave', 'Fl 2', 'New York, NY 10001']",New York,NY,10001,"[{'alias': 'bbq', 'title': 'Barbeque'}, {'alias': 'korean', 'title': 'Korean'}]"
gvMYV5E3HyzhN_MYFIMGzg,El Born,https://www.yelp.com/biz/el-born-brooklyn?adjust_creative=mOvLaDpE4mdRLtHvvM6tbw&utm_campaign=yelp_api_v3&utm_medium=api_v3_business_search&utm_source=mOvLaDpE4mdRLtHvvM6tbw,307,4.5,40.7243479163883,-73.9512226101037,"['651 Manhattan Ave', 'Brooklyn, NY 11222']",Brooklyn,NY,11222,"[{'alias': 'spanish', 'title': 'Spanish'}, {'alias': 'wine_bars', 'title': 'Wine Bars'}, {'alias': 'tapasmallplates', 'title': 'Tapas/Small Plates'}]"
owYYuyLvlsdjLz68c3SSfg,Taboonette,https://www.yelp.com/biz/taboonette-new-york?adjust_creative=mOvLaDpE4mdRLtHvvM6tbw&utm_campaign=yelp_api_v3&utm_medium=api_v3_business_search&utm_source=mOvLaDpE4mdRLtHvvM6tbw,857,4.5,40.7346038818359,-73.9928283691406,"['30 E 13th St', 'New York, NY 10003']",New York,NY,10003,"[{'alias': 'mediterranean', 'title': 'Mediterranean'}, {'alias': 'mideastern', 'title': 'Middle Eastern'}, {'alias': 'newamerican', 'title': 'American (New)'}]"
H1jops1lmuhrq9lP7lEGJQ,Flor De Mayo,https://www.yelp.com/biz/flor-de-mayo-new-york-2?adjust_creative=mOvLaDpE4mdRLtHvvM6tbw&utm_campaign=yelp_api_v3&utm_medium=api_v3_business_search&utm_source=mOvLaDpE4mdRLtHvvM6tbw,1191,4.0,40.78609,-73.97658,"['484 Amsterdam Ave', 'New York, NY 10024']",New York,NY,10024,"[{'alias': 'chinese', 'title': 'Chinese'}, {'alias': 'cuban', 'title': 'Cuban'}, {'alias': 'peruvian', 'title': 'Peruvian'}]"
q2bIyvU8CQwiB6xe_iVs0g,Fan Fried Rice Bar,https://www.yelp.com/biz/fan-fried-rice-bar-brooklyn-2?adjust_creative=mOvLaDpE4mdRLtHvvM6tbw&utm_campaign=yelp_api_v3&utm_medium=api_v3_business_search&utm_source=mOvLaDpE4mdRLtHvvM6tbw,78,4.5,40.69099,-73.95586999999999,"['525 Dekalb Ave', 'Brooklyn, NY 11205']",Brooklyn,NY,11205,"[{'alias': 'taiwanese', 'title': 'Taiwanese'}]"
9DPI1WLAOfpiMXxHeQ0swg,Tailfeather,https://www.yelp.com/biz/tailfeather-new-york?adjust_creative=mOvLaDpE4mdRLtHvvM6tbw&utm_campaign=yelp_api_v3&utm_medium=api_v3_business_search&utm_source=mOvLaDpE4mdRLtHvvM6tbw,16,5.0,40.69415,-73.96089,"['581 Myrtle Ave', 'New York, NY 11205']",New York,NY,11205,"[{'alias': 'wine_bars', 'title': 'Wine Bars'}, {'alias': 'tapasmallplates', 'title': 'Tapas/Small Plates'}, {'alias': 'pizza', 'title': 'Pizza'}]"
TgoYhgbPCYhLBNtpue3QHg,Maya,https://www.yelp.com/biz/maya-new-york?adjust_creative=mOvLaDpE4mdRLtHvvM6tbw&utm_campaign=yelp_api_v3&utm_medium=api_v3_business_search&utm_source=mOvLaDpE4mdRLtHvvM6tbw,949,3.5,40.7632055528185,-73.9596225112209,"['1191 1st Ave', 'New York, NY 10065']",New York,NY,10065,"[{'alias': 'mexican', 'title': 'Mexican'}]"
I6KHYESZdZQz0fnMaMyIpQ,Zusik,https://www.yelp.com/biz/zusik-new-york-2?adjust_creative=mOvLaDpE4mdRLtHvvM6tbw&utm_campaign=yelp_api_v3&utm_medium=api_v3_business_search&utm_source=mOvLaDpE4mdRLtHvvM6tbw,163,4.5,40.738532,-74.00036800000001,"['202 W 14th St', 'New York, NY 10011']",New York,NY,10011,"[{'alias': 'korean', 'title': 'Korean'}, {'alias': 'asianfusion', 'title': 'Asian Fusion'}, {'alias': 'wine_bars', 'title': 'Wine Bars'}]"
Z6ucILdV-BUJ4pJWSfINzQ,Frangos Peri Peri,https://www.yelp.com/biz/frangos-peri-peri-new-york?adjust_creative=mOvLaDpE4mdRLtHvvM6tbw&utm_campaign=yelp_api_v3&utm_medium=api_v3_business_search&utm_source=mOvLaDpE4mdRLtHvvM6tbw,67,4.5,40.727787,-73.979444,"['182 Avenue B', 'New York, NY 10009']",New York,NY,10009,"[{'alias': 'portuguese', 'title': 'Portuguese'}, {'alias': 'venues', 'title': 'Venues & Event Spaces'}]"
zj8Lq1T8KIC5zwFief15jg,Prince Street Pizza,https://www.yelp.com/biz/prince-street-pizza-new-york-2?adjust_creative=mOvLaDpE4mdRLtHvvM6tbw&utm_campaign=yelp_api_v3&utm_medium=api_v3_business_search&utm_source=mOvLaDpE4mdRLtHvvM6tbw,3686,4.5,40.7229087705545,-73.99448633193971,"['27 Prince St', 'New York, NY 10012']",New York,NY,10012,"[{'alias': 'pizza', 'title': 'Pizza'}, {'alias': 'italian', 'title': 'Italian'}]"
3GMHPnrkFAcqffw3T7JSdQ,Kitchen 79,https://www.yelp.com/biz/kitchen-79-jackson-heights?adjust_creative=mOvLaDpE4mdRLtHvvM6tbw&utm_campaign=yelp_api_v3&utm_medium=api_v3_business_search&utm_source=mOvLaDpE4mdRLtHvvM6tbw,624,4.5,40.747551,-73.8868866,"['37-70 79th St', 'Jackson Heights, NY 11372']",Jackson Heights,NY,11372,"[{'alias': 'thai', 'title': 'Thai'}]"
blXVGUTB-4epYW9KFsQJ_g,The Greek Kitchen,https://www.yelp.com/biz/the-greek-kitchen-new-york?adjust_creative=mOvLaDpE4mdRLtHvvM6tbw&utm_campaign=yelp_api_v3&utm_medium=api_v3_business_search&utm_source=mOvLaDpE4mdRLtHvvM6tbw,508,4.0,40.7697614,-73.9881055,"['889 10th Ave', 'New York, NY 10019']",New York,NY,10019,"[{'alias': 'greek', 'title': 'Greek'}, {'alias': 'mediterranean', 'title': 'Mediterranean'}]"
8WnHtvMdPWE66eSkUdbLhQ,Flip Sigi,https://www.yelp.com/biz/flip-sigi-new-york-2?adjust_creative=mOvLaDpE4mdRLtHvvM6tbw&utm_campaign=yelp_api_v3&utm_medium=api_v3_business_search&utm_source=mOvLaDpE4mdRLtHvvM6tbw,730,4.0,40.73405,-74.00641999999999,"['525 Hudson St', 'New York, NY 10014']",New York,NY,10014,"[{'alias': 'filipino', 'title': 'Filipino'}, {'alias': 'tacos', 'title': 'Tacos'}, {'alias': 'burgers', 'title': 'Burgers'}]"
dOxHYQmBR14Fa2C1X8oMMQ,Sushi Lab,https://www.yelp.com/biz/sushi-lab-new-york-5?adjust_creative=mOvLaDpE4mdRLtHvvM6tbw&utm_campaign=yelp_api_v3&utm_medium=api_v3_business_search&utm_source=mOvLaDpE4mdRLtHvvM6tbw,288,4.5,40.758417,-73.983301,"['132 W 47th St', 'New York, NY 10036']",New York,NY,10036,"[{'alias': 'sushi', 'title': 'Sushi Bars'}, {'alias': 'japanese', 'title': 'Japanese'}]"
_-EQR2vNYg-b1eZwAgp6JQ,Tanoreen,https://www.yelp.com/biz/tanoreen-brooklyn-2?adjust_creative=mOvLaDpE4mdRLtHvvM6tbw&utm_campaign=yelp_api_v3&utm_medium=api_v3_business_search&utm_source=mOvLaDpE4mdRLtHvvM6tbw,864,4.0,40.6308,-74.02775,"['7523 3rd Ave', 'Brooklyn, NY 11209']",Brooklyn,NY,11209,"[{'alias': 'mideastern', 'title': 'Middle Eastern'}, {'alias': 'mediterranean', 'title': 'Mediterranean'}, {'alias': 'halal', 'title': 'Halal'}]"
-XYp6w50XbZfS90YddS5ew,Soothr,https://www.yelp.com/biz/soothr-new-york-2?adjust_creative=mOvLaDpE4mdRLtHvvM6tbw&utm_campaign=yelp_api_v3&utm_medium=api_v3_business_search&utm_source=mOvLaDpE4mdRLtHvvM6tbw,72,5.0,40.732318,-73.9873417,"['204 E 13th St', 'New York, NY 10003']",New York,NY,10003,"[{'alias': 'thai', 'title': 'Thai'}, {'alias': 'bars', 'title': 'Bars'}, {'alias': 'noodles', 'title': 'Noodles'}]"
0laCKZiHrdM_ZKdhTFbGgg,Sauce & Barrel,https://www.yelp.com/biz/sauce-and-barrel-new-york?adjust_creative=mOvLaDpE4mdRLtHvvM6tbw&utm_campaign=yelp_api_v3&utm_medium=api_v3_business_search&utm_source=mOvLaDpE4mdRLtHvvM6tbw,423,4.0,40.707999,-74.01426509999999,"['97 Washington St', 'New York, NY 10006']",New York,NY,10006,"[{'alias': 'bars', 'title': 'Bars'}, {'alias': 'italian', 'title': 'Italian'}, {'alias': 'pizza', 'title': 'Pizza'}]"
JpUmsVDjA0zjygYcoskq2Q,Colombia In Park Slope,https://www.yelp.com/biz/colombia-in-park-slope-brooklyn?adjust_creative=mOvLaDpE4mdRLtHvvM6tbw&utm_campaign=yelp_api_v3&utm_medium=api_v3_business_search&utm_source=mOvLaDpE4mdRLtHvvM6tbw,377,4.0,40.671313,-73.984893,"['376 5th Ave', 'Brooklyn, NY 11215']",Brooklyn,NY,11215,"[{'alias': 'colombian', 'title': 'Colombian'}]"
16heVvLqYfLpl8mC1RN3Bg,Laojie Hotpot,https://www.yelp.com/biz/laojie-hotpot-brooklyn-4?adjust_creative=mOvLaDpE4mdRLtHvvM6tbw&utm_campaign=yelp_api_v3&utm_medium=api_v3_business_search&utm_source=mOvLaDpE4mdRLtHvvM6tbw,596,4.5,40.6389709339157,-74.0046846944427,"['811 53rd St', 'Brooklyn, NY 11220']",Brooklyn,NY,11220,"[{'alias': 'hotpot', 'title': 'Hot Pot'}]"
McU7XI3HoWFELTDaGc1SEw,Ginger and Lemongrass,https://www.yelp.com/biz/ginger-and-lemongrass-new-york-2?adjust_creative=mOvLaDpE4mdRLtHvvM6tbw&utm_campaign=yelp_api_v3&utm_medium=api_v3_business_search&utm_source=mOvLaDpE4mdRLtHvvM6tbw,384,4.0,40.719120000000004,-73.98567,"['153 Rivington St', 'New York, NY 10002']",New York,NY,10002,"[{'alias': 'vietnamese', 'title': 'Vietnamese'}, {'alias': 'thai', 'title': 'Thai'}, {'alias': 'asianfusion', 'title': 'Asian Fusion'}]"
cvJ39wrAYnquWuMhfFAS2w,Mondayoff by Plant Love House,https://www.yelp.com/biz/mondayoff-by-plant-love-house-brooklyn?adjust_creative=mOvLaDpE4mdRLtHvvM6tbw&utm_campaign=yelp_api_v3&utm_medium=api_v3_business_search&utm_source=mOvLaDpE4mdRLtHvvM6tbw,210,4.0,40.639164,-73.969124,"['752 Coney Island Ave', 'Brooklyn, NY 11218']",Brooklyn,NY,11218,"[{'alias': 'thai', 'title': 'Thai'}, {'alias': 'noodles', 'title': 'Noodles'}, {'alias': 'beerbar', 'title': 'Beer Bar'}]"
z5hRX3iJ5Ty_S38iG_WY3Q,Tanner Smiths,https://www.yelp.com/biz/tanner-smiths-new-york-2?adjust_creative=mOvLaDpE4mdRLtHvvM6tbw&utm_campaign=yelp_api_v3&utm_medium=api_v3_business_search&utm_source=mOvLaDpE4mdRLtHvvM6tbw,1756,4.5,40.76442,-73.98169,"['204 W 55th St', 'New York, NY 10019']",New York,NY,10019,"[{'alias': 'cocktailbars', 'title': 'Cocktail Bars'}, {'alias': 'newamerican', 'title': 'American (New)'}, {'alias': 'speakeasies', 'title': 'Speakeasies'}]"
s3jou_L_LVYGkNHiuhjlew,Boucherie West Village,https://www.yelp.com/biz/boucherie-west-village-new-york-3?adjust_creative=mOvLaDpE4mdRLtHvvM6tbw&utm_campaign=yelp_api_v3&utm_medium=api_v3_business_search&utm_source=mOvLaDpE4mdRLtHvvM6tbw,1504,4.5,40.733063,-74.0028772,"['99 7th Ave S', 'New York, NY 10014']",New York,NY,10014,"[{'alias': 'french', 'title': 'French'}, {'alias': 'cocktailbars', 'title': 'Cocktail Bars'}, {'alias': 'steak', 'title': 'Steakhouses'}]"
i8ejDDR4COtukAAA1Ls5fw,Soba-ya,https://www.yelp.com/biz/soba-ya-new-york?adjust_creative=mOvLaDpE4mdRLtHvvM6tbw&utm_campaign=yelp_api_v3&utm_medium=api_v3_business_search&utm_source=mOvLaDpE4mdRLtHvvM6tbw,1469,4.0,40.7296485900879,-73.9878845214844,"['229 E 9th St', 'New York, NY 10003']",New York,NY,10003,"[{'alias': 'japanese', 'title': 'Japanese'}, {'alias': 'noodles', 'title': 'Noodles'}]"
TDyu1-6XF7r1jc13j7nDNA,TØRST,https://www.yelp.com/biz/t%C3%B8rst-brooklyn?adjust_creative=mOvLaDpE4mdRLtHvvM6tbw&utm_campaign=yelp_api_v3&utm_medium=api_v3_business_search&utm_source=mOvLaDpE4mdRLtHvvM6tbw,401,4.5,40.723394899999995,-73.950856,"['615 Manhattan Ave', 'Brooklyn, NY 11222']",Brooklyn,NY,11222,"[{'alias': 'beerbar', 'title': 'Beer Bar'}, {'alias': 'gastropubs', 'title': 'Gastropubs'}, {'alias': 'wine_bars', 'title': 'Wine Bars'}]"
OLSSJIp8pu5UlugTF7tuHA,Ootoya Chelsea,https://www.yelp.com/biz/ootoya-chelsea-new-york?adjust_creative=mOvLaDpE4mdRLtHvvM6tbw&utm_campaign=yelp_api_v3&utm_medium=api_v3_business_search&utm_source=mOvLaDpE4mdRLtHvvM6tbw,1401,4.0,40.738721000000005,-73.99279,"['8 W 18th St', 'New York, NY 10011']",New York,NY,10011,"[{'alias': 'sushi', 'title': 'Sushi Bars'}, {'alias': 'hotpot', 'title': 'Hot Pot'}, {'alias': 'japacurry', 'title': 'Japanese Curry'}]"
QRbD99HVMffeto7_Hq67CQ,Korzo,https://www.yelp.com/biz/korzo-brooklyn?adjust_creative=mOvLaDpE4mdRLtHvvM6tbw&utm_campaign=yelp_api_v3&utm_medium=api_v3_business_search&utm_source=mOvLaDpE4mdRLtHvvM6tbw,456,4.0,40.66199,-73.99238000000001,"['667 5th Ave', 'Brooklyn, NY 11215']",Brooklyn,NY,11215,"[{'alias': 'modern_european', 'title': 'Modern European'}, {'alias': 'burgers', 'title': 'Burgers'}]"
enT7NJ7tLMvUMCWQcsUonw,Mémé Mediterranean,https://www.yelp.com/biz/m%C3%A9m%C3%A9-mediterranean-new-york-4?adjust_creative=mOvLaDpE4mdRLtHvvM6tbw&utm_campaign=yelp_api_v3&utm_medium=api_v3_business_search&utm_source=mOvLaDpE4mdRLtHvvM6tbw,600,4.0,40.736412,-74.00616,"['581 Hudson St', 'New York, NY 10014']",New York,NY,10014,"[{'alias': 'mediterranean', 'title': 'Mediterranean'}, {'alias': 'salad', 'title': 'Salad'}, {'alias': 'seafood', 'title': 'Seafood'}]"
tA1QO_GParSsaOaO8UoBvQ,Blue Smoke,https://www.yelp.com/biz/blue-smoke-new-york-4?adjust_creative=mOvLaDpE4mdRLtHvvM6tbw&utm_campaign=yelp_api_v3&utm_medium=api_v3_business_search&utm_source=mOvLaDpE4mdRLtHvvM6tbw,643,3.5,40.714486,-74.0152768,"['255 Vesey St', 'New York, NY 10282']",New York,NY,10282,"[{'alias': 'southern', 'title': 'Southern'}, {'alias': 'bbq', 'title': 'Barbeque'}, {'alias': 'sportsbars', 'title': 'Sports Bars'}]"
